{"type": "FeatureCollection", "id": "http://data.archaeology.link/data/cigs/CuneiformSite_collection", "name": "CuneiformSite Instances Collection", "features": [{"type": "Feature", "id": "http://data.archaeology.link/data/cigs/KHA", "name": "\u062a\u0644 \u062e\u064a\u0628\u0631 (KHA)", "dateprops": [], "properties": {}, "geometry": {"type": "Point", "coordinates": [45.9328, 31.0593]}}, {"type": "Feature", "id": "http://data.archaeology.link/data/cigs/TLH", "name": "\u062a\u0644 \u0627\u0644\u0644\u062d\u0645 (TLH)", "dateprops": [], "properties": {}, "geometry": {"type": "Point", "coordinates": [45.4062, 32.0509]}}, {"type": "Feature", "id": "http://data.archaeology.link/data/cigs/SPA", "name": " (SPA)", "dateprops": [], "properties": {}, "geometry": {"type": "Point", "coordinates": [44.0205, 40.6679]}}, {"type": "Feature", "id": "http://data.archaeology.link/data/cigs/TTU", "name": " (TTU)", "dateprops": [], "properties": {}, "geometry": {"type": "Point", "coordinates": [40.549, 38.5291]}}, {"type": "Feature", "id": "http://data.archaeology.link/data/cigs/NHV", "name": "\u0646\u0647\u0627\u0648\u0646\u062f (NHV)", "dateprops": [], "properties": {}, "geometry": {"type": "Point", "coordinates": [48.3769, 34.1889]}}, {"type": "Feature", "id": "http://data.archaeology.link/data/cigs/SHD", "name": " (SHD)", "dateprops": [], "properties": {}, "geometry": {"type": "Point", "coordinates": [57.7405, 30.4279]}}, {"type": "Feature", "id": "http://data.archaeology.link/data/cigs/QAN", "name": " (QAN)", "dateprops": [], "properties": {}, "geometry": {"type": "Point", "coordinates": [52.6252, 29.5848]}}, {"type": "Feature", "id": "http://data.archaeology.link/data/cigs/MAV", "name": " (MAV)", "dateprops": [], "properties": {}, "geometry": {"type": "Point", "coordinates": [44.7952, 37.5734]}}, {"type": "Feature", "id": "http://data.archaeology.link/data/cigs/BRS", "name": "\u0628\u0631\u064a\u0635\u0627 (BRS)", "dateprops": [], "properties": {}, "geometry": {"type": "Point", "coordinates": [36.3117, 34.4309]}}, {"type": "Feature", "id": "http://data.archaeology.link/data/cigs/KSH", "name": "\u0643\u064a\u0634 (KSH)", "dateprops": [], "properties": {}, "geometry": {"type": "Point", "coordinates": [44.5949, 32.5455]}}, {"type": "Feature", "id": "http://data.archaeology.link/data/cigs/ELA", "name": " (ELA)", "dateprops": [], "properties": {}, "geometry": {"type": "Point", "coordinates": [44.6168, 40.2681]}}, {"type": "Feature", "id": "http://data.archaeology.link/data/cigs/KZL", "name": "\u062a\u0644 \u0643\u0632\u0644 (KZL)", "dateprops": [], "properties": {}, "geometry": {"type": "Point", "coordinates": [35.9862, 34.7085]}}, {"type": "Feature", "id": "http://data.archaeology.link/data/cigs/PDK", "name": "\u0627\u0644\u062d\u0627\u064a\u0637 (PDK)", "dateprops": [], "properties": {}, "geometry": {"type": "Point", "coordinates": [40.4668, 25.9786]}}, {"type": "Feature", "id": "http://data.archaeology.link/data/cigs/DMU", "name": "\u062a\u0644 \u0639\u0644\u064a (DMU)", "dateprops": [], "properties": {}, "geometry": {"type": "Point", "coordinates": [43.682, 35.3819]}}, {"type": "Feature", "id": "http://data.archaeology.link/data/cigs/KAI", "name": " (KAI)", "dateprops": [], "properties": {}, "geometry": {"type": "Point", "coordinates": [43.6446, 38.466]}}, {"type": "Feature", "id": "http://data.archaeology.link/data/cigs/KSX", "name": " (KSX)", "dateprops": [], "properties": {}, "geometry": {"type": "Point", "coordinates": [48.6185, 32.2683]}}, {"type": "Feature", "id": "http://data.archaeology.link/data/cigs/KKH", "name": " (KKH)", "dateprops": [], "properties": {}, "geometry": {"type": "Point", "coordinates": [40.5397, 37.826]}}, {"type": "Feature", "id": "http://data.archaeology.link/data/cigs/HLF", "name": "\u062a\u0644 \u062d\u0644\u0641 (HLF)", "dateprops": [], "properties": {}, "geometry": {"type": "Point", "coordinates": [40.0399, 36.8268]}}, {"type": "Feature", "id": "http://data.archaeology.link/data/cigs/IBA", "name": "\u062a\u0644 \u0627\u0628\u0631\u0627\u0647\u064a\u0645 \u0628\u0627\u064a\u0633 (IBA)", "dateprops": [], "properties": {}, "geometry": {"type": "Point", "coordinates": [43.5551, 35.7742]}}, {"type": "Feature", "id": "http://data.archaeology.link/data/cigs/TUT", "name": "\u062a\u0644 \u0627\u0644\u0628\u064a\u0639\u0629 (TUT)", "dateprops": [], "properties": {}, "geometry": {"type": "Point", "coordinates": [39.0471, 35.958]}}, {"type": "Feature", "id": "http://data.archaeology.link/data/cigs/KOS", "name": " (KOS)", "dateprops": [], "properties": {}, "geometry": {"type": "Point", "coordinates": [57.7787, 28.4494]}}, {"type": "Feature", "id": "http://data.archaeology.link/data/cigs/SOU", "name": "\u062a\u0644 \u0633\u0648\u0643\u0627\u0633 (SOU)", "dateprops": [], "properties": {}, "geometry": {"type": "Point", "coordinates": [35.9229, 35.306]}}, {"type": "Feature", "id": "http://data.archaeology.link/data/cigs/MCQ", "name": "Unknown (MCQ)", "dateprops": [], "properties": {}, "geometry": {"type": "Point", "coordinates": [45.3936, 32.149]}}, {"type": "Feature", "id": "http://data.archaeology.link/data/cigs/APH", "name": " (APH)", "dateprops": [], "properties": {}, "geometry": {"type": "Point", "coordinates": [34.9311, 32.1053]}}, {"type": "Feature", "id": "http://data.archaeology.link/data/cigs/YAR", "name": "\u062a\u0644 \u064a\u0627\u0631\u0629 (YAR)", "dateprops": [], "properties": {}, "geometry": {"type": "Point", "coordinates": [43.2532, 36.4466]}}, {"type": "Feature", "id": "http://data.archaeology.link/data/cigs/BHN", "name": "\u0628\u0646\u0627\u062a \u0627\u0644\u062d\u0633\u0646 (BHN)", "dateprops": [], "properties": {}, "geometry": {"type": "Point", "coordinates": [45.5218, 31.5757]}}, {"type": "Feature", "id": "http://data.archaeology.link/data/cigs/GCN", "name": " (GCN)", "dateprops": [], "properties": {}, "geometry": {"type": "Point", "coordinates": [40.7499, 37.8169]}}, {"type": "Feature", "id": "http://data.archaeology.link/data/cigs/KAB", "name": "\u0643\u0628\u0631\u064a\u062a (KAB)", "dateprops": [], "properties": {}, "geometry": {"type": "Point", "coordinates": [32.4914, 30.2285]}}, {"type": "Feature", "id": "http://data.archaeology.link/data/cigs/MAR", "name": "\u062a\u0644 \u062d\u0631\u064a\u0631\u064a (MAR)", "dateprops": [], "properties": {}, "geometry": {"type": "Point", "coordinates": [40.8887, 34.5504]}}, {"type": "Feature", "id": "http://data.archaeology.link/data/cigs/QBR", "name": "\u062a\u0644 \u0623\u0628\u0648 \u0642\u0628\u0631 (QBR)", "dateprops": [], "properties": {}, "geometry": {"type": "Point", "coordinates": [44.2185, 33.1455]}}, {"type": "Feature", "id": "http://data.archaeology.link/data/cigs/DLH", "name": "\u0625\u064a\u0634\u0627\u0646 \u062f\u0644\u064a\u0647\u0645 (DLH)", "dateprops": [], "properties": {}, "geometry": {"type": "Point", "coordinates": [45.4108, 31.9985]}}, {"type": "Feature", "id": "http://data.archaeology.link/data/cigs/BLQ", "name": "\u0627\u0644\u0628\u0644\u0627\u062f \u0627\u0644\u0642\u062f\u064a\u0645 (BLQ)", "dateprops": [], "properties": {}, "geometry": {"type": "Point", "coordinates": [50.5371, 26.2184]}}, {"type": "Feature", "id": "http://data.archaeology.link/data/cigs/HBK", "name": "\u062d\u0628\u0648\u0628\u0629 (HBK)", "dateprops": [], "properties": {}, "geometry": {"type": "Point", "coordinates": [38.0609, 36.1501]}}, {"type": "Feature", "id": "http://data.archaeology.link/data/cigs/KEC", "name": " (KEC)", "dateprops": [], "properties": {}, "geometry": {"type": "Point", "coordinates": [43.6345, 38.9714]}}, {"type": "Feature", "id": "http://data.archaeology.link/data/cigs/RUT", "name": " (RUT)", "dateprops": [], "properties": {}, "geometry": {"type": "Point", "coordinates": [43.7555, 42.9889]}}, {"type": "Feature", "id": "http://data.archaeology.link/data/cigs/HAS", "name": " (HAS)", "dateprops": [], "properties": {}, "geometry": {"type": "Point", "coordinates": [42.892, 38.3427]}}, {"type": "Feature", "id": "http://data.archaeology.link/data/cigs/ZBD", "name": "\u062a\u0644 \u0632\u0628\u064a\u062f\u064a (ZBD)", "dateprops": [], "properties": {}, "geometry": {"type": "Point", "coordinates": [45.0312, 34.1982]}}, {"type": "Feature", "id": "http://data.archaeology.link/data/cigs/HMR", "name": "\u0633\u0644\u064a\u0645\u0647 (HMR)", "dateprops": [], "properties": {}, "geometry": {"type": "Point", "coordinates": [45.1034, 34.1677]}}, {"type": "Feature", "id": "http://data.archaeology.link/data/cigs/TDB", "name": "Unknown (TDB)", "dateprops": [], "properties": {}, "geometry": {"type": "Point", "coordinates": [44.4823, 33.3229]}}, {"type": "Feature", "id": "http://data.archaeology.link/data/cigs/SOK", "name": " (SOK)", "dateprops": [], "properties": {}, "geometry": {"type": "Point", "coordinates": [61.328, 30.5961]}}, {"type": "Feature", "id": "http://data.archaeology.link/data/cigs/ORD", "name": " (ORD)", "dateprops": [], "properties": {}, "geometry": {"type": "Point", "coordinates": [43.0496, 39.2058]}}, {"type": "Feature", "id": "http://data.archaeology.link/data/cigs/TDU", "name": "\u062a\u0644 \u062d\u0645\u064a\u062f\u064a (TDU)", "dateprops": [], "properties": {}, "geometry": {"type": "Point", "coordinates": [41.166, 36.816]}}, {"type": "Feature", "id": "http://data.archaeology.link/data/cigs/DAB", "name": "\u062a\u0644 \u0627\u0644\u0636\u0628\u0639\u0629 (DAB)", "dateprops": [], "properties": {}, "geometry": {"type": "Point", "coordinates": [31.8233, 30.7867]}}, {"type": "Feature", "id": "http://data.archaeology.link/data/cigs/MDB", "name": "\u062a\u0644 \u0645\u062d\u0645\u062f \u062f\u064a\u0627\u0628 (MDB)", "dateprops": [], "properties": {}, "geometry": {"type": "Point", "coordinates": [41.5642, 36.9243]}}, {"type": "Feature", "id": "http://data.archaeology.link/data/cigs/ADH", "name": "\u062a\u0644 \u0623\u0628\u0648 \u0627\u0644\u0630\u0647\u0628 (ADH)", "dateprops": [], "properties": {}, "geometry": {"type": "Point", "coordinates": [46.6926, 30.7382]}}, {"type": "Feature", "id": "http://data.archaeology.link/data/cigs/JAV", "name": " (JAV)", "dateprops": [], "properties": {}, "geometry": {"type": "Point", "coordinates": [45.9564, 37.4913]}}, {"type": "Feature", "id": "http://data.archaeology.link/data/cigs/AYA", "name": " (AYA)", "dateprops": [], "properties": {}, "geometry": {"type": "Point", "coordinates": [43.2114, 38.7083]}}, {"type": "Feature", "id": "http://data.archaeology.link/data/cigs/KSN", "name": " (KSN)", "dateprops": [], "properties": {}, "geometry": {"type": "Point", "coordinates": [35.1508, 32.873]}}, {"type": "Feature", "id": "http://data.archaeology.link/data/cigs/GAV", "name": " (GAV)", "dateprops": [], "properties": {}, "geometry": {"type": "Point", "coordinates": [45.1383, 40.3547]}}, {"type": "Feature", "id": "http://data.archaeology.link/data/cigs/SHP", "name": " (SHP)", "dateprops": [], "properties": {}, "geometry": {"type": "Point", "coordinates": [34.8685, 31.6283]}}, {"type": "Feature", "id": "http://data.archaeology.link/data/cigs/SQL", "name": " (SQL)", "dateprops": [], "properties": {}, "geometry": {"type": "Point", "coordinates": [34.5471, 31.6629]}}, {"type": "Feature", "id": "http://data.archaeology.link/data/cigs/ADB", "name": "\u0628\u0633\u0645\u0627\u064a\u0627 (ADB)", "dateprops": [], "properties": {}, "geometry": {"type": "Point", "coordinates": [45.6233, 31.9509]}}, {"type": "Feature", "id": "http://data.archaeology.link/data/cigs/IDU", "name": "\u0633\u0627\u062a\u0648 \u0642\u0644\u0627 (IDU)", "dateprops": [], "properties": {}, "geometry": {"type": "Point", "coordinates": [44.6965, 35.8739]}}, {"type": "Feature", "id": "http://data.archaeology.link/data/cigs/HMT", "name": "\u062a\u0644 \u062d\u0645\u0627\u0645 \u0627\u0644\u062a\u0631\u0643\u0645\u0627\u0646 (HMT)", "dateprops": [], "properties": {}, "geometry": {"type": "Point", "coordinates": [39.0569, 36.4825]}}, {"type": "Feature", "id": "http://data.archaeology.link/data/cigs/TNA", "name": "\u0639\u0646\u0647 (TNA)", "dateprops": [], "properties": {}, "geometry": {"type": "Point", "coordinates": [41.9794, 34.4677]}}, {"type": "Feature", "id": "http://data.archaeology.link/data/cigs/ZWY", "name": "\u0632\u0648\u064a\u0629 (ZWY)", "dateprops": [], "properties": {}, "geometry": {"type": "Point", "coordinates": [42.1725, 34.2925]}}, {"type": "Feature", "id": "http://data.archaeology.link/data/cigs/HBS", "name": "\u062d\u0628\u0644 \u0627\u0644\u0635\u062e\u0631 (HBS)", "dateprops": [], "properties": {}, "geometry": {"type": "Point", "coordinates": [44.2698, 33.1216]}}, {"type": "Feature", "id": "http://data.archaeology.link/data/cigs/PHG", "name": " (PHG)", "dateprops": [], "properties": {}, "geometry": {"type": "Point", "coordinates": [36.9584, 45.2759]}}, {"type": "Feature", "id": "http://data.archaeology.link/data/cigs/RQI", "name": "Unknown (RQI)", "dateprops": [], "properties": {}, "geometry": {"type": "Point", "coordinates": [40.8521, 36.44]}}, {"type": "Feature", "id": "http://data.archaeology.link/data/cigs/SUS", "name": " (SUS)", "dateprops": [], "properties": {}, "geometry": {"type": "Point", "coordinates": [48.2569, 32.1895]}}, {"type": "Feature", "id": "http://data.archaeology.link/data/cigs/MRW", "name": "\u062a\u0644 \u0645\u0631\u0648\u0627\u0646\u064a (MRW)", "dateprops": [], "properties": {}, "geometry": {"type": "Point", "coordinates": [40.6627, 34.8669]}}, {"type": "Feature", "id": "http://data.archaeology.link/data/cigs/AMM", "name": "\u0645\u0637\u0627\u0631 \u0639\u0645\u0627\u0646 \u0627\u0644\u0645\u062f\u0646\u064a (AMM)", "dateprops": [], "properties": {}, "geometry": {"type": "Point", "coordinates": [35.9813, 31.9713]}}, {"type": "Feature", "id": "http://data.archaeology.link/data/cigs/SUH", "name": "Unknown (SUH)", "dateprops": [], "properties": {}, "geometry": {"type": "Point", "coordinates": [45.5881, 31.4729]}}, {"type": "Feature", "id": "http://data.archaeology.link/data/cigs/ANS", "name": " (ANS)", "dateprops": [], "properties": {}, "geometry": {"type": "Point", "coordinates": [52.4123, 30.0119]}}, {"type": "Feature", "id": "http://data.archaeology.link/data/cigs/TSO", "name": " (TSO)", "dateprops": [], "properties": {}, "geometry": {"type": "Point", "coordinates": [51.7366, 35.3161]}}, {"type": "Feature", "id": "http://data.archaeology.link/data/cigs/SRM", "name": " (SRM)", "dateprops": [], "properties": {}, "geometry": {"type": "Point", "coordinates": [43.496, 38.4984]}}, {"type": "Feature", "id": "http://data.archaeology.link/data/cigs/QAI", "name": " (QAI)", "dateprops": [], "properties": {}, "geometry": {"type": "Point", "coordinates": [46.1798, 35.488]}}, {"type": "Feature", "id": "http://data.archaeology.link/data/cigs/BYB", "name": "\u062c\u0628\u064a\u0644 (BYB)", "dateprops": [], "properties": {}, "geometry": {"type": "Point", "coordinates": [35.646, 34.1191]}}, {"type": "Feature", "id": "http://data.archaeology.link/data/cigs/SZU", "name": "\u062a\u0644 \u0634\u0645\u0634\u0627\u0631\u0629 (SZU)", "dateprops": [], "properties": {}, "geometry": {"type": "Point", "coordinates": [44.9384, 36.2016]}}, {"type": "Feature", "id": "http://data.archaeology.link/data/cigs/KHI", "name": " (KHI)", "dateprops": [], "properties": {}, "geometry": {"type": "Point", "coordinates": [46.6409, 34.5441]}}, {"type": "Feature", "id": "http://data.archaeology.link/data/cigs/BSH", "name": " (BSH)", "dateprops": [], "properties": {}, "geometry": {"type": "Point", "coordinates": [34.9206, 31.9535]}}, {"type": "Feature", "id": "http://data.archaeology.link/data/cigs/GTV", "name": " (GTV)", "dateprops": [], "properties": {}, "geometry": {"type": "Point", "coordinates": [48.8149, 32.2363]}}, {"type": "Feature", "id": "http://data.archaeology.link/data/cigs/TAT", "name": " (TAT)", "dateprops": [], "properties": {}, "geometry": {"type": "Point", "coordinates": [45.5666, 37.0499]}}, {"type": "Feature", "id": "http://data.archaeology.link/data/cigs/FRA", "name": " (FRA)", "dateprops": [], "properties": {}, "geometry": {"type": "Point", "coordinates": [38.3835, 35.9029]}}, {"type": "Feature", "id": "http://data.archaeology.link/data/cigs/HAD", "name": "\u062a\u0644 \u0627\u0644\u062d\u062f\u064a\u062f\u064a (HAD)", "dateprops": [], "properties": {}, "geometry": {"type": "Point", "coordinates": [38.1507, 36.2645]}}, {"type": "Feature", "id": "http://data.archaeology.link/data/cigs/TNH", "name": " (TNH)", "dateprops": [], "properties": {}, "geometry": {"type": "Point", "coordinates": [45.925, 39.4156]}}, {"type": "Feature", "id": "http://data.archaeology.link/data/cigs/KUM", "name": "\u0627\u064a\u0634\u0627\u0646 \u0623\u0628\u0648 \u0643\u0645\u0628\u0627\u0631\u0629 (KUM)", "dateprops": [], "properties": {}, "geometry": {"type": "Point", "coordinates": [46.1954, 31.0535]}}, {"type": "Feature", "id": "http://data.archaeology.link/data/cigs/ERZ", "name": " (ERZ)", "dateprops": [], "properties": {}, "geometry": {"type": "Point", "coordinates": [41.3849, 37.978]}}, {"type": "Feature", "id": "http://data.archaeology.link/data/cigs/RAZ", "name": " (RAZ)", "dateprops": [], "properties": {}, "geometry": {"type": "Point", "coordinates": [47.5496, 38.0066]}}, {"type": "Feature", "id": "http://data.archaeology.link/data/cigs/GZR", "name": "\u062a\u0644 \u0627\u0644\u062c\u0632\u0631 (GZR)", "dateprops": [], "properties": {}, "geometry": {"type": "Point", "coordinates": [34.921, 31.8596]}}, {"type": "Feature", "id": "http://data.archaeology.link/data/cigs/OYH", "name": " (OYH)", "dateprops": [], "properties": {}, "geometry": {"type": "Point", "coordinates": [37.1786, 36.6988]}}, {"type": "Feature", "id": "http://data.archaeology.link/data/cigs/SAI", "name": "\u0627\u0644\u0633\u064a\u0627\u0644 (SAI)", "dateprops": [], "properties": {}, "geometry": {"type": "Point", "coordinates": [40.9096, 34.597]}}, {"type": "Feature", "id": "http://data.archaeology.link/data/cigs/NKM", "name": " (NKM)", "dateprops": [], "properties": {}, "geometry": {"type": "Point", "coordinates": [58.6555, 51.2297]}}, {"type": "Feature", "id": "http://data.archaeology.link/data/cigs/BLW", "name": "\u0628\u0644\u0627\u0648\u0627\u062a (BLW)", "dateprops": [], "properties": {}, "geometry": {"type": "Point", "coordinates": [43.4033, 36.2294]}}, {"type": "Feature", "id": "http://data.archaeology.link/data/cigs/KEL", "name": "\u0643\u0644\u064a\u0634\u064a\u0646 (KEL)", "dateprops": [], "properties": {}, "geometry": {"type": "Point", "coordinates": [44.8994, 36.9171]}}, {"type": "Feature", "id": "http://data.archaeology.link/data/cigs/RTA", "name": "\u0631\u0633\u0645 \u0627\u0644 \u0637\u0646\u062c\u0631\u0629 (RTA)", "dateprops": [], "properties": {}, "geometry": {"type": "Point", "coordinates": [36.3562, 35.5872]}}, {"type": "Feature", "id": "http://data.archaeology.link/data/cigs/ARR", "name": "\u0643\u0631\u0643\u0648\u0643 (ARR)", "dateprops": [], "properties": {}, "geometry": {"type": "Point", "coordinates": [44.3957, 35.4701]}}, {"type": "Feature", "id": "http://data.archaeology.link/data/cigs/JMM", "name": " (JMM)", "dateprops": [], "properties": {}, "geometry": {"type": "Point", "coordinates": [34.445, 31.3872]}}, {"type": "Feature", "id": "http://data.archaeology.link/data/cigs/QCH", "name": "\u0642\u0631\u0629 \u062c\u062a\u0627\u0646 (QCH)", "dateprops": [], "properties": {}, "geometry": {"type": "Point", "coordinates": [45.1914, 35.7417]}}, {"type": "Feature", "id": "http://data.archaeology.link/data/cigs/JDR", "name": "\u062a\u0644 \u062c\u062f\u0631 (JDR)", "dateprops": [], "properties": {}, "geometry": {"type": "Point", "coordinates": [45.7032, 31.8254]}}, {"type": "Feature", "id": "http://data.archaeology.link/data/cigs/GUL", "name": " (GUL)", "dateprops": [], "properties": {}, "geometry": {"type": "Point", "coordinates": [46.4843, 33.4675]}}, {"type": "Feature", "id": "http://data.archaeology.link/data/cigs/ASZ", "name": "\u062a\u0644 \u0634\u0627\u063a\u0631 \u0628\u0627\u0632\u0627\u0631 (ASZ)", "dateprops": [], "properties": {}, "geometry": {"type": "Point", "coordinates": [40.8978, 36.8755]}}, {"type": "Feature", "id": "http://data.archaeology.link/data/cigs/DOH", "name": "\u062f\u0647\u0648\u0643\u200e (DOH)", "dateprops": [], "properties": {}, "geometry": {"type": "Point", "coordinates": [42.9205, 36.8623]}}, {"type": "Feature", "id": "http://data.archaeology.link/data/cigs/ASK", "name": "\u062a\u0644 \u0623\u0628\u0648 \u0635\u0644\u0627\u0628\u064a\u062e (ASK)", "dateprops": [], "properties": {}, "geometry": {"type": "Point", "coordinates": [45.0544, 32.2526]}}, {"type": "Feature", "id": "http://data.archaeology.link/data/cigs/GOT", "name": " (GOT)", "dateprops": [], "properties": {}, "geometry": {"type": "Point", "coordinates": [48.0685, 34.5183]}}, {"type": "Feature", "id": "http://data.archaeology.link/data/cigs/SHI", "name": "\u0627\u0644 \u0628\u0644\u0629 (SHI)", "dateprops": [], "properties": {}, "geometry": {"type": "Point", "coordinates": [43.3481, 36.4335]}}, {"type": "Feature", "id": "http://data.archaeology.link/data/cigs/ZOH", "name": " (ZOH)", "dateprops": [], "properties": {}, "geometry": {"type": "Point", "coordinates": [45.8692, 34.4633]}}, {"type": "Feature", "id": "http://data.archaeology.link/data/cigs/BAB", "name": "\u0628\u0627\u0628\u064a\u0644 (BAB)", "dateprops": [], "properties": {}, "geometry": {"type": "Point", "coordinates": [44.4258, 32.535]}}, {"type": "Feature", "id": "http://data.archaeology.link/data/cigs/TEG", "name": " (TEG)", "dateprops": [], "properties": {}, "geometry": {"type": "Point", "coordinates": [48.6069, 37.7352]}}, {"type": "Feature", "id": "http://data.archaeology.link/data/cigs/MMG", "name": " (MMG)", "dateprops": [], "properties": {}, "geometry": {"type": "Point", "coordinates": [42.9136, 37.006]}}, {"type": "Feature", "id": "http://data.archaeology.link/data/cigs/ERI", "name": "\u0623\u0628\u0648 \u0634\u0647\u0631\u064a\u0646 (ERI)", "dateprops": [], "properties": {}, "geometry": {"type": "Point", "coordinates": [45.9962, 30.8169]}}, {"type": "Feature", "id": "http://data.archaeology.link/data/cigs/KZN", "name": " (KZN)", "dateprops": [], "properties": {}, "geometry": {"type": "Point", "coordinates": [38.846, 37.1196]}}, {"type": "Feature", "id": "http://data.archaeology.link/data/cigs/LAR", "name": "\u062a\u0644 \u0627\u0644\u0633\u0646\u0643\u0631\u0629 (LAR)", "dateprops": [], "properties": {}, "geometry": {"type": "Point", "coordinates": [45.8549, 31.2832]}}, {"type": "Feature", "id": "http://data.archaeology.link/data/cigs/ALS", "name": " (ALS)", "dateprops": [], "properties": {}, "geometry": {"type": "Point", "coordinates": [35.2614, 39.6059]}}, {"type": "Feature", "id": "http://data.archaeology.link/data/cigs/TIR", "name": " (TIR)", "dateprops": [], "properties": {}, "geometry": {"type": "Point", "coordinates": [22.8003, 37.5992]}}, {"type": "Feature", "id": "http://data.archaeology.link/data/cigs/MRL", "name": " (MRL)", "dateprops": [], "properties": {}, "geometry": {"type": "Point", "coordinates": [49.5019, 36.8528]}}, {"type": "Feature", "id": "http://data.archaeology.link/data/cigs/SAR", "name": "\u062e\u0648\u0631\u0633\u0628\u0627\u0637 (SAR)", "dateprops": [], "properties": {}, "geometry": {"type": "Point", "coordinates": [43.2347, 36.5035]}}, {"type": "Feature", "id": "http://data.archaeology.link/data/cigs/QAT", "name": "\u062a\u0644 \u0627\u0644\u0631\u0645\u0629 (QAT)", "dateprops": [], "properties": {}, "geometry": {"type": "Point", "coordinates": [42.45, 36.2569]}}, {"type": "Feature", "id": "http://data.archaeology.link/data/cigs/TKP", "name": " (TKP)", "dateprops": [], "properties": {}, "geometry": {"type": "Point", "coordinates": [43.2489, 40.9553]}}, {"type": "Feature", "id": "http://data.archaeology.link/data/cigs/WLS", "name": "\u0648\u0627\u062f\u064a \u0622\u0644 \u0633\u0628\u0639 (WLS)", "dateprops": [], "properties": {}, "geometry": {"type": "Point", "coordinates": [36.349, 34.5518]}}, {"type": "Feature", "id": "http://data.archaeology.link/data/cigs/QLD", "name": "Unknown (QLD)", "dateprops": [], "properties": {}, "geometry": {"type": "Point", "coordinates": [45.1328, 36.1367]}}, {"type": "Feature", "id": "http://data.archaeology.link/data/cigs/THE", "name": " (THE)", "dateprops": [], "properties": {}, "geometry": {"type": "Point", "coordinates": [23.3177, 38.3207]}}, {"type": "Feature", "id": "http://data.archaeology.link/data/cigs/BRK", "name": "\u062a\u0644 \u0628\u0631\u0627\u0643 (BRK)", "dateprops": [], "properties": {}, "geometry": {"type": "Point", "coordinates": [41.0584, 36.667]}}, {"type": "Feature", "id": "http://data.archaeology.link/data/cigs/BES", "name": " (BES)", "dateprops": [], "properties": {}, "geometry": {"type": "Point", "coordinates": [43.5635, 38.5159]}}, {"type": "Feature", "id": "http://data.archaeology.link/data/cigs/JWN", "name": "\u062a\u0644\u0648\u0644 \u0623\u0628\u0648 \u062c\u0627\u0648\u0646 (JWN)", "dateprops": [], "properties": {}, "geometry": {"type": "Point", "coordinates": [44.807, 33.1337]}}, {"type": "Feature", "id": "http://data.archaeology.link/data/cigs/SIP", "name": "\u062a\u0644 \u0627\u0644\u062f\u064a\u0631 (SIP)", "dateprops": [], "properties": {}, "geometry": {"type": "Point", "coordinates": [44.2991, 33.0991]}}, {"type": "Feature", "id": "http://data.archaeology.link/data/cigs/PSG", "name": " (PSG)", "dateprops": [], "properties": {}, "geometry": {"type": "Point", "coordinates": [53.1768, 30.2008]}}, {"type": "Feature", "id": "http://data.archaeology.link/data/cigs/TKH", "name": "\u062a\u0644\u0648\u0644 \u062e\u0637\u0627\u0628 (TKH)", "dateprops": [], "properties": {}, "geometry": {"type": "Point", "coordinates": [44.5136, 33.4767]}}, {"type": "Feature", "id": "http://data.archaeology.link/data/cigs/NER", "name": "\u0646\u064a\u0631\u0628 (NER)", "dateprops": [], "properties": {}, "geometry": {"type": "Point", "coordinates": [37.2265, 36.1777]}}, {"type": "Feature", "id": "http://data.archaeology.link/data/cigs/ZAB", "name": "\u062a\u0644 \u0627\u0628\u0632\u064a\u062e (ZAB)", "dateprops": [], "properties": {}, "geometry": {"type": "Point", "coordinates": [45.8749, 31.7436]}}, {"type": "Feature", "id": "http://data.archaeology.link/data/cigs/SMA", "name": "\u0627\u0644\u0633\u0627\u0645\u0631\u0629 (SMA)", "dateprops": [], "properties": {}, "geometry": {"type": "Point", "coordinates": [35.1897, 32.2763]}}, {"type": "Feature", "id": "http://data.archaeology.link/data/cigs/KMN", "name": "\u0643\u0645\u0648\u0646\u0629 (KMN)", "dateprops": [], "properties": {}, "geometry": {"type": "Point", "coordinates": [42.7304, 36.7713]}}, {"type": "Feature", "id": "http://data.archaeology.link/data/cigs/BTM", "name": " (BTM)", "dateprops": [], "properties": {}, "geometry": {"type": "Point", "coordinates": [44.9473, 38.8859]}}, {"type": "Feature", "id": "http://data.archaeology.link/data/cigs/EHA", "name": " (EHA)", "dateprops": [], "properties": {}, "geometry": {"type": "Point", "coordinates": [39.059, 36.9336]}}, {"type": "Feature", "id": "http://data.archaeology.link/data/cigs/HMM", "name": "\u062d\u0645\u0627\u0645 (HMM)", "dateprops": [], "properties": {}, "geometry": {"type": "Point", "coordinates": [38.1781, 36.6413]}}, {"type": "Feature", "id": "http://data.archaeology.link/data/cigs/YEL", "name": "\u062a\u0644 \u064a\u0644\u062e\u064a (YEL)", "dateprops": [], "properties": {}, "geometry": {"type": "Point", "coordinates": [45.0013, 34.2856]}}, {"type": "Feature", "id": "http://data.archaeology.link/data/cigs/LRK", "name": "\u062a\u0644 \u0648\u0644\u0627\u064a\u0629 (LRK)", "dateprops": [], "properties": {}, "geometry": {"type": "Point", "coordinates": [45.6602, 32.3127]}}, {"type": "Feature", "id": "http://data.archaeology.link/data/cigs/URB", "name": "\u0642\u0644\u0639\u0629 \u0623\u0631\u0628\u064a\u0644 (URB)", "dateprops": [], "properties": {}, "geometry": {"type": "Point", "coordinates": [44.0093, 36.1913]}}, {"type": "Feature", "id": "http://data.archaeology.link/data/cigs/JUH", "name": "\u062a\u0644 \u062c\u0648\u062e\u0629 (JUH)", "dateprops": [], "properties": {}, "geometry": {"type": "Point", "coordinates": [43.6918, 33.3424]}}, {"type": "Feature", "id": "http://data.archaeology.link/data/cigs/GRL", "name": " (GRL)", "dateprops": [], "properties": {}, "geometry": {"type": "Point", "coordinates": [23.8915, 47.0195]}}, {"type": "Feature", "id": "http://data.archaeology.link/data/cigs/QAB", "name": "\u062a\u0644 \u0642\u0628\u0631 \u0627\u0628\u0648 \u0627\u0644\u0639\u062a\u064a\u0642 (QAB)", "dateprops": [], "properties": {}, "geometry": {"type": "Point", "coordinates": [39.7854, 35.763]}}, {"type": "Feature", "id": "http://data.archaeology.link/data/cigs/TSA", "name": "\u062a\u0644 \u0633\u0643 (TSA)", "dateprops": [], "properties": {}, "geometry": {"type": "Point", "coordinates": [36.4682, 33.4402]}}, {"type": "Feature", "id": "http://data.archaeology.link/data/cigs/JDD", "name": "\u062c\u062f\u064a\u062f\u06d5 (JDD)", "dateprops": [], "properties": {}, "geometry": {"type": "Point", "coordinates": [42.0326, 34.3826]}}, {"type": "Feature", "id": "http://data.archaeology.link/data/cigs/THO", "name": " (THO)", "dateprops": [], "properties": {}, "geometry": {"type": "Point", "coordinates": [37.7581, 37.0676]}}, {"type": "Feature", "id": "http://data.archaeology.link/data/cigs/VAR", "name": " (VAR)", "dateprops": [], "properties": {}, "geometry": {"type": "Point", "coordinates": [45.193, 40.1888]}}, {"type": "Feature", "id": "http://data.archaeology.link/data/cigs/UBD", "name": "\u062a\u0644 \u0627\u0644\u0639\u0628\u064a\u062f (UBD)", "dateprops": [], "properties": {}, "geometry": {"type": "Point", "coordinates": [46.0305, 30.9722]}}, {"type": "Feature", "id": "http://data.archaeology.link/data/cigs/LSB", "name": "\u062a\u0644 \u0627\u0644\u0633\u064a\u0628 (LSB)", "dateprops": [], "properties": {}, "geometry": {"type": "Point", "coordinates": [45.058, 34.1929]}}, {"type": "Feature", "id": "http://data.archaeology.link/data/cigs/PAS", "name": "\u062a\u0644 \u0623\u0628\u0648 \u0634\u064a\u062c\u0629 (PAS)", "dateprops": [], "properties": {}, "geometry": {"type": "Point", "coordinates": [47.1479, 32.3944]}}, {"type": "Feature", "id": "http://data.archaeology.link/data/cigs/DGK", "name": "Unknown (DGK)", "dateprops": [], "properties": {}, "geometry": {"type": "Point", "coordinates": [44.8475, 36.1549]}}, {"type": "Feature", "id": "http://data.archaeology.link/data/cigs/NIP", "name": "\u0646\u0641\u0631 (NIP)", "dateprops": [], "properties": {}, "geometry": {"type": "Point", "coordinates": [45.23, 32.1271]}}, {"type": "Feature", "id": "http://data.archaeology.link/data/cigs/QSH", "name": "\u0642\u0635\u0631 \u0634\u0645\u0627\u0645\u0648\u0643 (QSH)", "dateprops": [], "properties": {}, "geometry": {"type": "Point", "coordinates": [43.7514, 36.1039]}}, {"type": "Feature", "id": "http://data.archaeology.link/data/cigs/JRO", "name": " (JRO)", "dateprops": [], "properties": {}, "geometry": {"type": "Point", "coordinates": [35.4441, 31.871]}}, {"type": "Feature", "id": "http://data.archaeology.link/data/cigs/MCH", "name": " (MCH)", "dateprops": [], "properties": {}, "geometry": {"type": "Point", "coordinates": [34.8659, 32.4013]}}, {"type": "Feature", "id": "http://data.archaeology.link/data/cigs/ALT", "name": " (ALT)", "dateprops": [], "properties": {}, "geometry": {"type": "Point", "coordinates": [39.6467, 39.6964]}}, {"type": "Feature", "id": "http://data.archaeology.link/data/cigs/HRE", "name": " (HRE)", "dateprops": [], "properties": {}, "geometry": {"type": "Point", "coordinates": [26.886, 37.6721]}}, {"type": "Feature", "id": "http://data.archaeology.link/data/cigs/KSR", "name": "\u0625\u0634\u0627\u0646 \u0623\u0628\u0648 \u062d\u0637\u0628 (KSR)", "dateprops": [], "properties": {}, "geometry": {"type": "Point", "coordinates": [45.481, 31.8383]}}, {"type": "Feature", "id": "http://data.archaeology.link/data/cigs/ISN", "name": "\u0625\u0634\u0627\u0646 \u0646\u062d\u0631\u064a\u0627\u062a (ISN)", "dateprops": [], "properties": {}, "geometry": {"type": "Point", "coordinates": [45.2688, 31.8852]}}, {"type": "Feature", "id": "http://data.archaeology.link/data/cigs/TLB", "name": " (TLB)", "dateprops": [], "properties": {}, "geometry": {"type": "Point", "coordinates": [37.8735, 37.0886]}}, {"type": "Feature", "id": "http://data.archaeology.link/data/cigs/GAR", "name": " (GAR)", "dateprops": [], "properties": {}, "geometry": {"type": "Point", "coordinates": [44.7299, 40.1124]}}, {"type": "Feature", "id": "http://data.archaeology.link/data/cigs/BSE", "name": "\u062a\u0644 \u0628\u064a\u062a \u0634\u064a\u0645\u0634 (BSE)", "dateprops": [], "properties": {}, "geometry": {"type": "Point", "coordinates": [34.9748, 31.7506]}}, {"type": "Feature", "id": "http://data.archaeology.link/data/cigs/SLG", "name": " (SLG)", "dateprops": [], "properties": {}, "geometry": {"type": "Point", "coordinates": [14.5519, 35.8459]}}, {"type": "Feature", "id": "http://data.archaeology.link/data/cigs/BZM", "name": "\u062a\u0644 \u0628\u0627\u0632 \u0645\u0633\u064a\u0627\u0646 (BZM)", "dateprops": [], "properties": {}, "geometry": {"type": "Point", "coordinates": [44.9243, 36.1614]}}, {"type": "Feature", "id": "http://data.archaeology.link/data/cigs/DUZ", "name": " (DUZ)", "dateprops": [], "properties": {}, "geometry": {"type": "Point", "coordinates": [42.7279, 39.1747]}}, {"type": "Feature", "id": "http://data.archaeology.link/data/cigs/HSR", "name": " (HSR)", "dateprops": [], "properties": {}, "geometry": {"type": "Point", "coordinates": [54.3851, 36.1544]}}, {"type": "Feature", "id": "http://data.archaeology.link/data/cigs/TAF", "name": " (TAF)", "dateprops": [], "properties": {}, "geometry": {"type": "Point", "coordinates": [51.1321, 31.4883]}}, {"type": "Feature", "id": "http://data.archaeology.link/data/cigs/THW", "name": "\u062a\u0644 \u0627\u0644\u0647\u0648\u0649 (THW)", "dateprops": [], "properties": {}, "geometry": {"type": "Point", "coordinates": [42.3012, 36.7482]}}, {"type": "Feature", "id": "http://data.archaeology.link/data/cigs/KRK", "name": "\u062c\u0631\u0627\u0628\u0644\u0633 (KRK)", "dateprops": [], "properties": {}, "geometry": {"type": "Point", "coordinates": [38.0156, 36.8294]}}, {"type": "Feature", "id": "http://data.archaeology.link/data/cigs/MOA", "name": "\u062a\u0644 \u0645\u062d\u0645\u062f \u0639\u0631\u0628 (MOA)", "dateprops": [], "properties": {}, "geometry": {"type": "Point", "coordinates": [42.8893, 36.6346]}}, {"type": "Feature", "id": "http://data.archaeology.link/data/cigs/YAS", "name": " (YAS)", "dateprops": [], "properties": {}, "geometry": {"type": "Point", "coordinates": [34.8825, 39.9931]}}, {"type": "Feature", "id": "http://data.archaeology.link/data/cigs/YAZ", "name": " (YAZ)", "dateprops": [], "properties": {}, "geometry": {"type": "Point", "coordinates": [42.2755, 39.8708]}}, {"type": "Feature", "id": "http://data.archaeology.link/data/cigs/TBR", "name": "\u0637\u0627\u0628\u0648\u0631 (TBR)", "dateprops": [], "properties": {}, "geometry": {"type": "Point", "coordinates": [35.4147, 32.6714]}}, {"type": "Feature", "id": "http://data.archaeology.link/data/cigs/LHM", "name": "\u062a\u0644 \u0627\u0644\u0644\u062d\u0645 (LHM)", "dateprops": [], "properties": {}, "geometry": {"type": "Point", "coordinates": [46.3659, 30.774]}}, {"type": "Feature", "id": "http://data.archaeology.link/data/cigs/AJJ", "name": "\u062a\u0644 \u0639\u062c\u0627\u062c\u0629 (AJJ)", "dateprops": [], "properties": {}, "geometry": {"type": "Point", "coordinates": [40.7205, 36.2082]}}, {"type": "Feature", "id": "http://data.archaeology.link/data/cigs/URK", "name": "\u062a\u0644 \u0645\u0648\u0632\u0627\u0646\u200e\u200e (URK)", "dateprops": [], "properties": {}, "geometry": {"type": "Point", "coordinates": [40.9975, 37.0572]}}, {"type": "Feature", "id": "http://data.archaeology.link/data/cigs/JRW", "name": "\u062c\u0631\u0627\u0648\u0646\u0629 (JRW)", "dateprops": [], "properties": {}, "geometry": {"type": "Point", "coordinates": [43.3934, 36.6697]}}, {"type": "Feature", "id": "http://data.archaeology.link/data/cigs/ARM", "name": " (ARM)", "dateprops": [], "properties": {}, "geometry": {"type": "Point", "coordinates": [44.0229, 40.0789]}}, {"type": "Feature", "id": "http://data.archaeology.link/data/cigs/ASD", "name": "\u0623\u064e\u0634\u0652\u062f\u064f\u0648\u062f\u200e (ASD)", "dateprops": [], "properties": {}, "geometry": {"type": "Point", "coordinates": [34.6593, 31.756]}}, {"type": "Feature", "id": "http://data.archaeology.link/data/cigs/NOR", "name": " (NOR)", "dateprops": [], "properties": {}, "geometry": {"type": "Point", "coordinates": [44.4743, 40.1198]}}, {"type": "Feature", "id": "http://data.archaeology.link/data/cigs/CHK", "name": " (CHK)", "dateprops": [], "properties": {}, "geometry": {"type": "Point", "coordinates": [33.8347, 38.4117]}}, {"type": "Feature", "id": "http://data.archaeology.link/data/cigs/DNO", "name": " (DNO)", "dateprops": [], "properties": {}, "geometry": {"type": "Point", "coordinates": [48.5684, 32.0686]}}, {"type": "Feature", "id": "http://data.archaeology.link/data/cigs/IDH", "name": "\u0625\u0634\u0627\u0646 \u0630\u0647\u0643 (IDH)", "dateprops": [], "properties": {}, "geometry": {"type": "Point", "coordinates": [44.8341, 32.7104]}}, {"type": "Feature", "id": "http://data.archaeology.link/data/cigs/TMU", "name": " (TMU)", "dateprops": [], "properties": {}, "geometry": {"type": "Point", "coordinates": [47.351, 32.553]}}, {"type": "Feature", "id": "http://data.archaeology.link/data/cigs/DWL", "name": "\u0627\u0644\u062f\u0648\u0627\u0644\u064a (DWL)", "dateprops": [], "properties": {}, "geometry": {"type": "Point", "coordinates": [41.9912, 34.4535]}}, {"type": "Feature", "id": "http://data.archaeology.link/data/cigs/HDD", "name": "\u062a\u0644 \u062d\u062f\u0627\u062f (HDD)", "dateprops": [], "properties": {}, "geometry": {"type": "Point", "coordinates": [45.0563, 34.1928]}}, {"type": "Feature", "id": "http://data.archaeology.link/data/cigs/KAZ", "name": " (KAZ)", "dateprops": [], "properties": {}, "geometry": {"type": "Point", "coordinates": [44.0255, 40.0064]}}, {"type": "Feature", "id": "http://data.archaeology.link/data/cigs/KFI", "name": " (KFI)", "dateprops": [], "properties": {}, "geometry": {"type": "Point", "coordinates": [52.1962, 30.3241]}}, {"type": "Feature", "id": "http://data.archaeology.link/data/cigs/KOR", "name": " (KOR)", "dateprops": [], "properties": {}, "geometry": {"type": "Point", "coordinates": [43.735, 38.8877]}}, {"type": "Feature", "id": "http://data.archaeology.link/data/cigs/TAN", "name": "\u0635\u0627\u0646 \u0627\u0644\u062d\u062c\u0631 (TAN)", "dateprops": [], "properties": {}, "geometry": {"type": "Point", "coordinates": [31.8845, 30.9746]}}, {"type": "Feature", "id": "http://data.archaeology.link/data/cigs/MZT", "name": " (MZT)", "dateprops": [], "properties": {}, "geometry": {"type": "Point", "coordinates": [37.9859, 36.9773]}}, {"type": "Feature", "id": "http://data.archaeology.link/data/cigs/BST", "name": " (BST)", "dateprops": [], "properties": {}, "geometry": {"type": "Point", "coordinates": [64.3566, 31.5081]}}, {"type": "Feature", "id": "http://data.archaeology.link/data/cigs/KAR", "name": "\u0627\u0644\u0643\u0631\u0646\u0643 (KAR)", "dateprops": [], "properties": {}, "geometry": {"type": "Point", "coordinates": [32.6586, 25.7168]}}, {"type": "Feature", "id": "http://data.archaeology.link/data/cigs/CGM", "name": " (CGM)", "dateprops": [], "properties": {}, "geometry": {"type": "Point", "coordinates": [48.5555, 32.224]}}, {"type": "Feature", "id": "http://data.archaeology.link/data/cigs/KZK", "name": " (KZK)", "dateprops": [], "properties": {}, "geometry": {"type": "Point", "coordinates": [37.285, 37.395]}}, {"type": "Feature", "id": "http://data.archaeology.link/data/cigs/SKH", "name": "\u062a\u0644 \u0634\u0631\u064a\u0641 \u062e\u0627\u0646 (SKH)", "dateprops": [], "properties": {}, "geometry": {"type": "Point", "coordinates": [43.0774, 36.4089]}}, {"type": "Feature", "id": "http://data.archaeology.link/data/cigs/YSJ", "name": "\u06cc\u0627\u0633\u0648\u062c (YSJ)", "dateprops": [], "properties": {}, "geometry": {"type": "Point", "coordinates": [51.5796, 30.6673]}}, {"type": "Feature", "id": "http://data.archaeology.link/data/cigs/KBN", "name": "\u0647\u0641\u062a \u062a\u067e\u0647 (KBN)", "dateprops": [], "properties": {}, "geometry": {"type": "Point", "coordinates": [48.3276, 32.0803]}}, {"type": "Feature", "id": "http://data.archaeology.link/data/cigs/NSB", "name": "\u062a\u0644 \u0627\u0644\u0646\u0635\u0628\u0629 (NSB)", "dateprops": [], "properties": {}, "geometry": {"type": "Point", "coordinates": [35.2166, 31.8851]}}, {"type": "Feature", "id": "http://data.archaeology.link/data/cigs/MHN", "name": " (MHN)", "dateprops": [], "properties": {}, "geometry": {"type": "Point", "coordinates": [57.29, 30.0598]}}, {"type": "Feature", "id": "http://data.archaeology.link/data/cigs/IHF", "name": "\u0625\u0634\u0627\u0646 \u062d\u0627\u0641\u0630 (IHF)", "dateprops": [], "properties": {}, "geometry": {"type": "Point", "coordinates": [45.4207, 31.9569]}}, {"type": "Feature", "id": "http://data.archaeology.link/data/cigs/AVN", "name": " (AVN)", "dateprops": [], "properties": {}, "geometry": {"type": "Point", "coordinates": [41.9817, 39.8283]}}, {"type": "Feature", "id": "http://data.archaeology.link/data/cigs/NAZ", "name": " (NAZ)", "dateprops": [], "properties": {}, "geometry": {"type": "Point", "coordinates": [39.027, 37.14]}}, {"type": "Feature", "id": "http://data.archaeology.link/data/cigs/SEA", "name": " (SEA)", "dateprops": [], "properties": {}, "geometry": {"type": "Point", "coordinates": [35.503, 32.5046]}}, {"type": "Feature", "id": "http://data.archaeology.link/data/cigs/TMH", "name": "\u062a\u0644 \u0645\u062d\u0645\u062f (TMH)", "dateprops": [], "properties": {}, "geometry": {"type": "Point", "coordinates": [44.4681, 33.3009]}}, {"type": "Feature", "id": "http://data.archaeology.link/data/cigs/QDS", "name": "\u062a\u0644 \u0627\u0644\u0646\u0628\u064a \u0645\u0646\u062f\u0648 (QDS)", "dateprops": [], "properties": {}, "geometry": {"type": "Point", "coordinates": [36.5194, 34.557]}}, {"type": "Feature", "id": "http://data.archaeology.link/data/cigs/KAY", "name": " (KAY)", "dateprops": [], "properties": {}, "geometry": {"type": "Point", "coordinates": [36.5279, 39.6211]}}, {"type": "Feature", "id": "http://data.archaeology.link/data/cigs/ZVA", "name": " (ZVA)", "dateprops": [], "properties": {}, "geometry": {"type": "Point", "coordinates": [44.3366, 40.1596]}}, {"type": "Feature", "id": "http://data.archaeology.link/data/cigs/AQA", "name": "\u062a\u0644 \u0639\u0642\u0631\u0642\u0648\u0641 (AQA)", "dateprops": [], "properties": {}, "geometry": {"type": "Point", "coordinates": [44.1888, 33.3599]}}, {"type": "Feature", "id": "http://data.archaeology.link/data/cigs/LCJ", "name": " (LCJ)", "dateprops": [], "properties": {}, "geometry": {"type": "Point", "coordinates": [44.9418, 40.5074]}}, {"type": "Feature", "id": "http://data.archaeology.link/data/cigs/EDF", "name": "\u0625\u062f\u0641\u0648\u200e (EDF)", "dateprops": [], "properties": {}, "geometry": {"type": "Point", "coordinates": [32.8728, 24.9782]}}, {"type": "Feature", "id": "http://data.archaeology.link/data/cigs/KHT", "name": "\u062a\u0644 \u0628\u0631\u064a (KHT)", "dateprops": [], "properties": {}, "geometry": {"type": "Point", "coordinates": [41.127, 36.7386]}}, {"type": "Feature", "id": "http://data.archaeology.link/data/cigs/GOV", "name": " (GOV)", "dateprops": [], "properties": {}, "geometry": {"type": "Point", "coordinates": [43.622, 38.5323]}}, {"type": "Feature", "id": "http://data.archaeology.link/data/cigs/HAN", "name": "Unknown (HAN)", "dateprops": [], "properties": {}, "geometry": {"type": "Point", "coordinates": [43.2896, 35.4368]}}, {"type": "Feature", "id": "http://data.archaeology.link/data/cigs/ARI", "name": " (ARI)", "dateprops": [], "properties": {}, "geometry": {"type": "Point", "coordinates": [44.538, 40.1405]}}, {"type": "Feature", "id": "http://data.archaeology.link/data/cigs/TRQ", "name": "\u062a\u0644 \u0627\u0644\u0623\u0634\u0627\u0631\u0629 (TRQ)", "dateprops": [], "properties": {}, "geometry": {"type": "Point", "coordinates": [40.5677, 34.9229]}}, {"type": "Feature", "id": "http://data.archaeology.link/data/cigs/DAS", "name": " (DAS)", "dateprops": [], "properties": {}, "geometry": {"type": "Point", "coordinates": [28.0507, 40.1326]}}, {"type": "Feature", "id": "http://data.archaeology.link/data/cigs/EDR", "name": " (EDR)", "dateprops": [], "properties": {}, "geometry": {"type": "Point", "coordinates": [43.2411, 38.4182]}}, {"type": "Feature", "id": "http://data.archaeology.link/data/cigs/YON", "name": " (YON)", "dateprops": [], "properties": {}, "geometry": {"type": "Point", "coordinates": [42.1875, 39.129]}}, {"type": "Feature", "id": "http://data.archaeology.link/data/cigs/ART", "name": "\u0623\u0631\u0633\u0644\u0627\u0646 \u0637\u0627\u0634 (ART)", "dateprops": [], "properties": {}, "geometry": {"type": "Point", "coordinates": [38.4078, 36.8484]}}, {"type": "Feature", "id": "http://data.archaeology.link/data/cigs/FRU", "name": " (FRU)", "dateprops": [], "properties": {}, "geometry": {"type": "Point", "coordinates": [47.2246, 32.5873]}}, {"type": "Feature", "id": "http://data.archaeology.link/data/cigs/HLW", "name": "\u062a\u0644 \u062d\u0644\u0627\u0648\u0629 (HLW)", "dateprops": [], "properties": {}, "geometry": {"type": "Point", "coordinates": [44.4874, 33.4258]}}, {"type": "Feature", "id": "http://data.archaeology.link/data/cigs/ANT", "name": "\u062a\u0644 \u0623\u0628\u0648 \u0639\u0646\u062a\u064a\u0643 (ANT)", "dateprops": [], "properties": {}, "geometry": {"type": "Point", "coordinates": [44.6393, 32.1311]}}, {"type": "Feature", "id": "http://data.archaeology.link/data/cigs/KEB", "name": " (KEB)", "dateprops": [], "properties": {}, "geometry": {"type": "Point", "coordinates": [37.8436, 37.2506]}}, {"type": "Feature", "id": "http://data.archaeology.link/data/cigs/KDR", "name": "\u0627\u0644\u062e\u0636\u0631 (KDR)", "dateprops": [], "properties": {}, "geometry": {"type": "Point", "coordinates": [48.288, 29.4657]}}, {"type": "Feature", "id": "http://data.archaeology.link/data/cigs/QTN", "name": "\u062a\u0644 \u0627\u0644\u0645\u0634\u0631\u0641\u0629 (QTN)", "dateprops": [], "properties": {}, "geometry": {"type": "Point", "coordinates": [36.8663, 34.8346]}}, {"type": "Feature", "id": "http://data.archaeology.link/data/cigs/MRD", "name": "\u062a\u0644 \u0635\u062f\u0648\u0645 (MRD)", "dateprops": [], "properties": {}, "geometry": {"type": "Point", "coordinates": [44.7851, 32.0917]}}, {"type": "Feature", "id": "http://data.archaeology.link/data/cigs/SDM", "name": " (SDM)", "dateprops": [], "properties": {}, "geometry": {"type": "Point", "coordinates": [47.7079, 33.5064]}}, {"type": "Feature", "id": "http://data.archaeology.link/data/cigs/USH", "name": " (USH)", "dateprops": [], "properties": {}, "geometry": {"type": "Point", "coordinates": [35.0525, 39.813]}}, {"type": "Feature", "id": "http://data.archaeology.link/data/cigs/TTB", "name": "\u062e\u0641\u0627\u062c\u064a (TTB)", "dateprops": [], "properties": {}, "geometry": {"type": "Point", "coordinates": [44.5559, 33.3554]}}, {"type": "Feature", "id": "http://data.archaeology.link/data/cigs/QAL", "name": " (QAL)", "dateprops": [], "properties": {}, "geometry": {"type": "Point", "coordinates": [45.2208, 37.0353]}}, {"type": "Feature", "id": "http://data.archaeology.link/data/cigs/BVI", "name": "\u0628\u0627\u0641\u064a\u0627\u0646 (BVI)", "dateprops": [], "properties": {}, "geometry": {"type": "Point", "coordinates": [43.42, 36.7615]}}, {"type": "Feature", "id": "http://data.archaeology.link/data/cigs/EBA", "name": "\u062a\u0644 \u0645\u0631\u062f\u064a\u062e (EBA)", "dateprops": [], "properties": {}, "geometry": {"type": "Point", "coordinates": [36.7983, 35.799]}}, {"type": "Feature", "id": "http://data.archaeology.link/data/cigs/NRB", "name": "\u0623\u0634\u062e\u0627\u0644\u064a (NRB)", "dateprops": [], "properties": {}, "geometry": {"type": "Point", "coordinates": [44.5828, 33.3029]}}, {"type": "Feature", "id": "http://data.archaeology.link/data/cigs/OJA", "name": " (OJA)", "dateprops": [], "properties": {}, "geometry": {"type": "Point", "coordinates": [45.6251, 39.137]}}, {"type": "Feature", "id": "http://data.archaeology.link/data/cigs/BAY", "name": "\u0628\u064a\u0633\u0627\u0646 (BAY)", "dateprops": [], "properties": {}, "geometry": {"type": "Point", "coordinates": [43.1037, 36.4222]}}, {"type": "Feature", "id": "http://data.archaeology.link/data/cigs/HAM", "name": "\u062d\u0645\u0627\u0629 (HAM)", "dateprops": [], "properties": {}, "geometry": {"type": "Point", "coordinates": [36.7479, 35.131]}}, {"type": "Feature", "id": "http://data.archaeology.link/data/cigs/DLB", "name": "\u062a\u0644 \u0627\u0644\u062f\u0644\u064a\u0645 (DLB)", "dateprops": [], "properties": {}, "geometry": {"type": "Point", "coordinates": [44.4668, 32.2961]}}, {"type": "Feature", "id": "http://data.archaeology.link/data/cigs/MIT", "name": "\u062a\u0644 \u0645\u064a\u062b\u0644\u064a (MIT)", "dateprops": [], "properties": {}, "geometry": {"type": "Point", "coordinates": [42.1377, 36.7586]}}, {"type": "Feature", "id": "http://data.archaeology.link/data/cigs/SIN", "name": "\u0634\u064a\u0634\u064a\u0646 (SIN)", "dateprops": [], "properties": {}, "geometry": {"type": "Point", "coordinates": [42.574, 33.9716]}}, {"type": "Feature", "id": "http://data.archaeology.link/data/cigs/GJN", "name": " (GJN)", "dateprops": [], "properties": {}, "geometry": {"type": "Point", "coordinates": [48.4373, 34.7622]}}, {"type": "Feature", "id": "http://data.archaeology.link/data/cigs/SRK", "name": " (SRK)", "dateprops": [], "properties": {}, "geometry": {"type": "Point", "coordinates": [42.5796, 40.3348]}}, {"type": "Feature", "id": "http://data.archaeology.link/data/cigs/EKA", "name": "\u062a\u0644 \u0645\u0646\u0628\u0627\u0642\u0647 (EKA)", "dateprops": [], "properties": {}, "geometry": {"type": "Point", "coordinates": [38.1298, 36.2182]}}, {"type": "Feature", "id": "http://data.archaeology.link/data/cigs/KRM", "name": " (KRM)", "dateprops": [], "properties": {}, "geometry": {"type": "Point", "coordinates": [47.0649, 34.314]}}, {"type": "Feature", "id": "http://data.archaeology.link/data/cigs/KAL", "name": "\u0643\u0627\u0645\u062f \u0627\u0644\u0644\u0648\u0632 (KAL)", "dateprops": [], "properties": {}, "geometry": {"type": "Point", "coordinates": [35.821, 33.6235]}}, {"type": "Feature", "id": "http://data.archaeology.link/data/cigs/BIT", "name": " (BIT)", "dateprops": [], "properties": {}, "geometry": {"type": "Point", "coordinates": [42.1071, 38.4013]}}, {"type": "Feature", "id": "http://data.archaeology.link/data/cigs/ORT", "name": " (ORT)", "dateprops": [], "properties": {}, "geometry": {"type": "Point", "coordinates": [35.2375, 40.2541]}}, {"type": "Feature", "id": "http://data.archaeology.link/data/cigs/ARU", "name": " (ARU)", "dateprops": [], "properties": {}, "geometry": {"type": "Point", "coordinates": [44.0784, 40.2865]}}, {"type": "Feature", "id": "http://data.archaeology.link/data/cigs/DON", "name": " (DON)", "dateprops": [], "properties": {}, "geometry": {"type": "Point", "coordinates": [41.5317, 38.7187]}}, {"type": "Feature", "id": "http://data.archaeology.link/data/cigs/HYK", "name": " (HYK)", "dateprops": [], "properties": {}, "geometry": {"type": "Point", "coordinates": [36.5456, 36.2977]}}, {"type": "Feature", "id": "http://data.archaeology.link/data/cigs/NQS", "name": " (NQS)", "dateprops": [], "properties": {}, "geometry": {"type": "Point", "coordinates": [52.8745, 29.9885]}}, {"type": "Feature", "id": "http://data.archaeology.link/data/cigs/HUZ", "name": " (HUZ)", "dateprops": [], "properties": {}, "geometry": {"type": "Point", "coordinates": [38.9062, 37.0501]}}, {"type": "Feature", "id": "http://data.archaeology.link/data/cigs/DKA", "name": "\u062a\u0644 \u0627\u0644\u0634\u064a\u062e \u062d\u0645\u062f (DKA)", "dateprops": [], "properties": {}, "geometry": {"type": "Point", "coordinates": [40.7436, 35.6463]}}, {"type": "Feature", "id": "http://data.archaeology.link/data/cigs/TAY", "name": "\u062a\u0644 \u0637\u0639\u064a\u0646\u0627\u062a (TAY)", "dateprops": [], "properties": {}, "geometry": {"type": "Point", "coordinates": [36.3759, 36.2482]}}, {"type": "Feature", "id": "http://data.archaeology.link/data/cigs/ZLB", "name": "\u0632\u0627\u0644\u0648\u0622\u0628 (ZLB)", "dateprops": [], "properties": {}, "geometry": {"type": "Point", "coordinates": [46.5799, 34.6309]}}, {"type": "Feature", "id": "http://data.archaeology.link/data/cigs/VAN", "name": " (VAN)", "dateprops": [], "properties": {}, "geometry": {"type": "Point", "coordinates": [43.3397, 38.5011]}}, {"type": "Feature", "id": "http://data.archaeology.link/data/cigs/GIR", "name": "\u062a\u0627 \u062a\u064a\u0644\u0648\u0647 (GIR)", "dateprops": [], "properties": {}, "geometry": {"type": "Point", "coordinates": [46.1776, 31.5591]}}, {"type": "Feature", "id": "http://data.archaeology.link/data/cigs/HWS", "name": "\u062a\u0644 \u062d\u0648\u064a\u0634 (HWS)", "dateprops": [], "properties": {}, "geometry": {"type": "Point", "coordinates": [43.2304, 35.5931]}}, {"type": "Feature", "id": "http://data.archaeology.link/data/cigs/KKA", "name": "Unknown (KKA)", "dateprops": [], "properties": {}, "geometry": {"type": "Point", "coordinates": [43.6532, 35.8079]}}, {"type": "Feature", "id": "http://data.archaeology.link/data/cigs/BIS", "name": " (BIS)", "dateprops": [], "properties": {}, "geometry": {"type": "Point", "coordinates": [47.4318, 34.3881]}}, {"type": "Feature", "id": "http://data.archaeology.link/data/cigs/NGB", "name": "\u0646\u06af\u0648\u0628 (NGB)", "dateprops": [], "properties": {}, "geometry": {"type": "Point", "coordinates": [43.4762, 36.0446]}}, {"type": "Feature", "id": "http://data.archaeology.link/data/cigs/AYC", "name": " (AYC)", "dateprops": [], "properties": {}, "geometry": {"type": "Point", "coordinates": [38.969, 36.8949]}}, {"type": "Feature", "id": "http://data.archaeology.link/data/cigs/NJF", "name": " (NJF)", "dateprops": [], "properties": {}, "geometry": {"type": "Point", "coordinates": [47.9761, 34.6527]}}, {"type": "Feature", "id": "http://data.archaeology.link/data/cigs/NAS", "name": " (NAS)", "dateprops": [], "properties": {}, "geometry": {"type": "Point", "coordinates": [47.8013, 38.0076]}}, {"type": "Feature", "id": "http://data.archaeology.link/data/cigs/SPH", "name": " (SPH)", "dateprops": [], "properties": {}, "geometry": {"type": "Point", "coordinates": [35.279, 32.7529]}}, {"type": "Feature", "id": "http://data.archaeology.link/data/cigs/ESH", "name": "\u062a\u0627 \u0623\u0633\u0645\u0631 (ESH)", "dateprops": [], "properties": {}, "geometry": {"type": "Point", "coordinates": [44.7276, 33.4837]}}, {"type": "Feature", "id": "http://data.archaeology.link/data/cigs/KUN", "name": "\u0643\u0648\u0646\u0640\u0627\u0631\u0627 (KUN)", "dateprops": [], "properties": {}, "geometry": {"type": "Point", "coordinates": [45.3594, 35.5192]}}, {"type": "Feature", "id": "http://data.archaeology.link/data/cigs/GNZ", "name": " (GNZ)", "dateprops": [], "properties": {}, "geometry": {"type": "Point", "coordinates": [41.2304, 37.1049]}}, {"type": "Feature", "id": "http://data.archaeology.link/data/cigs/SMH", "name": "\u0627\u0634\u0627\u0646 \u0627\u0644\u0633\u0645\u0639 (SMH)", "dateprops": [], "properties": {}, "geometry": {"type": "Point", "coordinates": [45.4193, 32.0725]}}, {"type": "Feature", "id": "http://data.archaeology.link/data/cigs/SBY", "name": "\u062a\u0644 \u0635\u0628\u064a \u0623\u0628\u064a\u0636 (SBY)", "dateprops": [], "properties": {}, "geometry": {"type": "Point", "coordinates": [39.0915, 36.5057]}}, {"type": "Feature", "id": "http://data.archaeology.link/data/cigs/SFR", "name": "\u062a\u0644 \u0633\u0641\u0631 (SFR)", "dateprops": [], "properties": {}, "geometry": {"type": "Point", "coordinates": [45.9672, 31.2946]}}, {"type": "Feature", "id": "http://data.archaeology.link/data/cigs/BSV", "name": " (BSV)", "dateprops": [], "properties": {}, "geometry": {"type": "Point", "coordinates": [34.8406, 31.2449]}}, {"type": "Feature", "id": "http://data.archaeology.link/data/cigs/KRG", "name": " (KRG)", "dateprops": [], "properties": {}, "geometry": {"type": "Point", "coordinates": [43.6459, 38.6955]}}, {"type": "Feature", "id": "http://data.archaeology.link/data/cigs/KML", "name": "\u062a\u0644 \u0627\u0644\u0642\u062f\u064a\u0633\u0629 \u0628\u0631\u0628\u0627\u0631\u0629 (KML)", "dateprops": [], "properties": {}, "geometry": {"type": "Point", "coordinates": [43.4095, 36.3056]}}, {"type": "Feature", "id": "http://data.archaeology.link/data/cigs/MKA", "name": " (MKA)", "dateprops": [], "properties": {}, "geometry": {"type": "Point", "coordinates": [44.9669, 36.9425]}}, {"type": "Feature", "id": "http://data.archaeology.link/data/cigs/MUR", "name": " (MUR)", "dateprops": [], "properties": {}, "geometry": {"type": "Point", "coordinates": [43.7634, 38.9913]}}, {"type": "Feature", "id": "http://data.archaeology.link/data/cigs/KNB", "name": "\u06a9\u0627\u0646\u06cc \u0628\u06cc (KNB)", "dateprops": [], "properties": {}, "geometry": {"type": "Point", "coordinates": [44.8358, 35.881]}}, {"type": "Feature", "id": "http://data.archaeology.link/data/cigs/GUD", "name": "\u062a\u0644 \u0625\u0628\u0631\u0627\u0647\u064a\u0645 (GUD)", "dateprops": [], "properties": {}, "geometry": {"type": "Point", "coordinates": [44.6112, 32.7605]}}, {"type": "Feature", "id": "http://data.archaeology.link/data/cigs/CSA", "name": " (CSA)", "dateprops": [], "properties": {}, "geometry": {"type": "Point", "coordinates": [47.3953, 33.3179]}}, {"type": "Feature", "id": "http://data.archaeology.link/data/cigs/KDH", "name": " (KDH)", "dateprops": [], "properties": {}, "geometry": {"type": "Point", "coordinates": [65.6588, 31.6025]}}, {"type": "Feature", "id": "http://data.archaeology.link/data/cigs/MRN", "name": " (MRN)", "dateprops": [], "properties": {}, "geometry": {"type": "Point", "coordinates": [40.7178, 37.3246]}}, {"type": "Feature", "id": "http://data.archaeology.link/data/cigs/CPE", "name": " (CPE)", "dateprops": [], "properties": {}, "geometry": {"type": "Point", "coordinates": [48.6133, 32.2291]}}, {"type": "Feature", "id": "http://data.archaeology.link/data/cigs/HAB", "name": " (HAB)", "dateprops": [], "properties": {}, "geometry": {"type": "Point", "coordinates": [38.7937, 38.4334]}}, {"type": "Feature", "id": "http://data.archaeology.link/data/cigs/DQD", "name": "\u062f\u0642\u062f\u0642\u0629 (DQD)", "dateprops": [], "properties": {}, "geometry": {"type": "Point", "coordinates": [46.1186, 30.9745]}}, {"type": "Feature", "id": "http://data.archaeology.link/data/cigs/HAT", "name": " (HAT)", "dateprops": [], "properties": {}, "geometry": {"type": "Point", "coordinates": [34.6164, 40.0144]}}, {"type": "Feature", "id": "http://data.archaeology.link/data/cigs/BTB", "name": "\u062a\u0644 \u0627\u0644\u0645\u062f\u064a\u0646\u0629 (BTB)", "dateprops": [], "properties": {}, "geometry": {"type": "Point", "coordinates": [46.004, 31.3832]}}, {"type": "Feature", "id": "http://data.archaeology.link/data/cigs/TZW", "name": "\u0637\u0648\u0628\u0632\u0627\u0648\u0629 (TZW)", "dateprops": [], "properties": {}, "geometry": {"type": "Point", "coordinates": [44.6979, 36.8079]}}, {"type": "Feature", "id": "http://data.archaeology.link/data/cigs/UWW", "name": " (UWW)", "dateprops": [], "properties": {}, "geometry": {"type": "Point", "coordinates": [45.7626, 31.2613]}}, {"type": "Feature", "id": "http://data.archaeology.link/data/cigs/BIN", "name": " (BIN)", "dateprops": [], "properties": {}, "geometry": {"type": "Point", "coordinates": [41.3873, 39.3101]}}, {"type": "Feature", "id": "http://data.archaeology.link/data/cigs/AGR", "name": "\u062a\u0644 \u0627\u062c\u0631\u0628 (AGR)", "dateprops": [], "properties": {}, "geometry": {"type": "Point", "coordinates": [44.8742, 33.3391]}}, {"type": "Feature", "id": "http://data.archaeology.link/data/cigs/GZH", "name": " (GZH)", "dateprops": [], "properties": {}, "geometry": {"type": "Point", "coordinates": [49.4149, 31.3597]}}, {"type": "Feature", "id": "http://data.archaeology.link/data/cigs/KLB", "name": "\u0646\u0647\u0631 \u0627\u0644\u0643\u0644\u0628 (KLB)", "dateprops": [], "properties": {}, "geometry": {"type": "Point", "coordinates": [35.5966, 33.9554]}}, {"type": "Feature", "id": "http://data.archaeology.link/data/cigs/KBL", "name": " (KBL)", "dateprops": [], "properties": {}, "geometry": {"type": "Point", "coordinates": [69.1954, 34.5153]}}, {"type": "Feature", "id": "http://data.archaeology.link/data/cigs/AZF", "name": " (AZF)", "dateprops": [], "properties": {}, "geometry": {"type": "Point", "coordinates": [43.4703, 38.5597]}}, {"type": "Feature", "id": "http://data.archaeology.link/data/cigs/TSI", "name": "\u062a\u067e\u0647 \u0633\u06cc\u0644\u06a9 (TSI)", "dateprops": [], "properties": {}, "geometry": {"type": "Point", "coordinates": [51.4042, 33.9688]}}, {"type": "Feature", "id": "http://data.archaeology.link/data/cigs/PAT", "name": " (PAT)", "dateprops": [], "properties": {}, "geometry": {"type": "Point", "coordinates": [42.864, 39.2332]}}, {"type": "Feature", "id": "http://data.archaeology.link/data/cigs/BHS", "name": "\u0628\u0646\u0627\u062a \u0627\u0644\u062d\u0633\u0646 (BHS)", "dateprops": [], "properties": {}, "geometry": {"type": "Point", "coordinates": [45.5399, 31.5557]}}, {"type": "Feature", "id": "http://data.archaeology.link/data/cigs/KOT", "name": " (KOT)", "dateprops": [], "properties": {}, "geometry": {"type": "Point", "coordinates": [42.2482, 39.1412]}}, {"type": "Feature", "id": "http://data.archaeology.link/data/cigs/PIR", "name": " (PIR)", "dateprops": [], "properties": {}, "geometry": {"type": "Point", "coordinates": [42.5843, 39.753]}}, {"type": "Feature", "id": "http://data.archaeology.link/data/cigs/SSH", "name": " (SSH)", "dateprops": [], "properties": {}, "geometry": {"type": "Point", "coordinates": [47.3662, 38.6075]}}, {"type": "Feature", "id": "http://data.archaeology.link/data/cigs/AHT", "name": " (AHT)", "dateprops": [], "properties": {}, "geometry": {"type": "Point", "coordinates": [43.037, 38.3401]}}, {"type": "Feature", "id": "http://data.archaeology.link/data/cigs/UGA", "name": "\u0631\u0627\u0633 \u0634\u0645\u0631\u0629 (UGA)", "dateprops": [], "properties": {}, "geometry": {"type": "Point", "coordinates": [35.7853, 35.6021]}}, {"type": "Feature", "id": "http://data.archaeology.link/data/cigs/YAL", "name": " (YAL)", "dateprops": [], "properties": {}, "geometry": {"type": "Point", "coordinates": [42.8485, 39.1768]}}, {"type": "Feature", "id": "http://data.archaeology.link/data/cigs/THY", "name": " (THY)", "dateprops": [], "properties": {}, "geometry": {"type": "Point", "coordinates": [36.7037, 37.0302]}}, {"type": "Feature", "id": "http://data.archaeology.link/data/cigs/BAZ", "name": "\u062a\u0644 \u0628\u0627\u0632\u064a (BAZ)", "dateprops": [], "properties": {}, "geometry": {"type": "Point", "coordinates": [38.2762, 36.4273]}}, {"type": "Feature", "id": "http://data.archaeology.link/data/cigs/NAB", "name": "\u062a\u0644 \u0628\u064a\u062f\u0631 (NAB)", "dateprops": [], "properties": {}, "geometry": {"type": "Point", "coordinates": [40.5872, 36.7381]}}, {"type": "Feature", "id": "http://data.archaeology.link/data/cigs/HAY", "name": " (HAY)", "dateprops": [], "properties": {}, "geometry": {"type": "Point", "coordinates": [44.0462, 40.091]}}, {"type": "Feature", "id": "http://data.archaeology.link/data/cigs/KRI", "name": " (KRI)", "dateprops": [], "properties": {}, "geometry": {"type": "Point", "coordinates": [35.4614, 38.7309]}}, {"type": "Feature", "id": "http://data.archaeology.link/data/cigs/CEL", "name": " (CEL)", "dateprops": [], "properties": {}, "geometry": {"type": "Point", "coordinates": [43.3127, 38.9839]}}, {"type": "Feature", "id": "http://data.archaeology.link/data/cigs/MLH", "name": "\u062a\u0644 \u0623\u0645\u0644\u064a\u062d\u064a\u0629 (MLH)", "dateprops": [], "properties": {}, "geometry": {"type": "Point", "coordinates": [45.0031, 34.1961]}}, {"type": "Feature", "id": "http://data.archaeology.link/data/cigs/SAP", "name": "\u062a\u0644 \u0623\u0628\u0648 \u062d\u0628\u0629 (SAP)", "dateprops": [], "properties": {}, "geometry": {"type": "Point", "coordinates": [44.2552, 33.0605]}}, {"type": "Feature", "id": "http://data.archaeology.link/data/cigs/SAL", "name": " (SAL)", "dateprops": [], "properties": {}, "geometry": {"type": "Point", "coordinates": [43.4345, 39.0482]}}, {"type": "Feature", "id": "http://data.archaeology.link/data/cigs/HSC", "name": " (HSC)", "dateprops": [], "properties": {}, "geometry": {"type": "Point", "coordinates": [36.7917, 37.6127]}}, {"type": "Feature", "id": "http://data.archaeology.link/data/cigs/MUH", "name": " (MUH)", "dateprops": [], "properties": {}, "geometry": {"type": "Point", "coordinates": [42.9157, 38.3461]}}, {"type": "Feature", "id": "http://data.archaeology.link/data/cigs/TAW", "name": "\u0637\u0648\u064a\u0644\u0627\u0646 (TAW)", "dateprops": [], "properties": {}, "geometry": {"type": "Point", "coordinates": [35.4848, 30.3313]}}, {"type": "Feature", "id": "http://data.archaeology.link/data/cigs/DEF", "name": "\u0643\u0648\u0645 \u062f\u0641\u0646\u0629 (DEF)", "dateprops": [], "properties": {}, "geometry": {"type": "Point", "coordinates": [32.1774, 30.8579]}}, {"type": "Feature", "id": "http://data.archaeology.link/data/cigs/OZB", "name": " (OZB)", "dateprops": [], "properties": {}, "geometry": {"type": "Point", "coordinates": [50.5866, 35.9799]}}, {"type": "Feature", "id": "http://data.archaeology.link/data/cigs/SRP", "name": "\u0633\u0627\u0631\u0628\u062a\u0627 (SRP)", "dateprops": [], "properties": {}, "geometry": {"type": "Point", "coordinates": [35.295, 33.4643]}}, {"type": "Feature", "id": "http://data.archaeology.link/data/cigs/HMD", "name": "\u0647\u0645\u062f\u0627\u0646 (HMD)", "dateprops": [], "properties": {}, "geometry": {"type": "Point", "coordinates": [48.5171, 34.8043]}}, {"type": "Feature", "id": "http://data.archaeology.link/data/cigs/BTU", "name": " (BTU)", "dateprops": [], "properties": {}, "geometry": {"type": "Point", "coordinates": [42.0279, 37.1876]}}, {"type": "Feature", "id": "http://data.archaeology.link/data/cigs/GHA", "name": "\u062a\u0644 \u0627\u0644\u063a\u0631\u0627\u0646 (GHA)", "dateprops": [], "properties": {}, "geometry": {"type": "Point", "coordinates": [44.4083, 32.6244]}}, {"type": "Feature", "id": "http://data.archaeology.link/data/cigs/HUM", "name": "Unknown (HUM)", "dateprops": [], "properties": {}, "geometry": {"type": "Point", "coordinates": [45.4998, 31.6166]}}, {"type": "Feature", "id": "http://data.archaeology.link/data/cigs/GRO", "name": "\u062a\u0644 \u06af\u0631\u064a \u0642\u0627\u0633\u0645 (GRO)", "dateprops": [], "properties": {}, "geometry": {"type": "Point", "coordinates": [42.9257, 36.6789]}}, {"type": "Feature", "id": "http://data.archaeology.link/data/cigs/SWS", "name": "\u0633\u0639\u062f \u0648\u0633\u0639\u064a\u062f (SWS)", "dateprops": [], "properties": {}, "geometry": {"type": "Point", "coordinates": [48.2779, 29.4303]}}, {"type": "Feature", "id": "http://data.archaeology.link/data/cigs/TSB", "name": " (TSB)", "dateprops": [], "properties": {}, "geometry": {"type": "Point", "coordinates": [44.7514, 33.4638]}}, {"type": "Feature", "id": "http://data.archaeology.link/data/cigs/PLU", "name": " (PLU)", "dateprops": [], "properties": {}, "geometry": {"type": "Point", "coordinates": [39.9535, 38.7023]}}, {"type": "Feature", "id": "http://data.archaeology.link/data/cigs/SPI", "name": " (SPI)", "dateprops": [], "properties": {}, "geometry": {"type": "Point", "coordinates": [51.4845, 30.2519]}}, {"type": "Feature", "id": "http://data.archaeology.link/data/cigs/LAG", "name": "\u062a\u0644 \u0627\u0644\u0647\u0628\u0627 (LAG)", "dateprops": [], "properties": {}, "geometry": {"type": "Point", "coordinates": [46.4108, 31.4182]}}, {"type": "Feature", "id": "http://data.archaeology.link/data/cigs/TAH", "name": " (TAH)", "dateprops": [], "properties": {}, "geometry": {"type": "Point", "coordinates": [35.0269, 39.8017]}}, {"type": "Feature", "id": "http://data.archaeology.link/data/cigs/ZCR", "name": " (ZCR)", "dateprops": [], "properties": {}, "geometry": {"type": "Point", "coordinates": [36.6783, 37.1035]}}, {"type": "Feature", "id": "http://data.archaeology.link/data/cigs/THR", "name": "\u0637\u0648\u0632 \u062e\u0648\u0631\u0645\u0627\u062a\u0648 (THR)", "dateprops": [], "properties": {}, "geometry": {"type": "Point", "coordinates": [44.6252, 34.884]}}, {"type": "Feature", "id": "http://data.archaeology.link/data/cigs/ALA", "name": "\u062a\u0644 \u0627\u0644\u0639\u0637\u0634\u0627\u0646\u0629 (ALA)", "dateprops": [], "properties": {}, "geometry": {"type": "Point", "coordinates": [36.3842, 36.2377]}}, {"type": "Feature", "id": "http://data.archaeology.link/data/cigs/KRH", "name": " (KRH)", "dateprops": [], "properties": {}, "geometry": {"type": "Point", "coordinates": [43.6607, 38.9493]}}, {"type": "Feature", "id": "http://data.archaeology.link/data/cigs/LIY", "name": " (LIY)", "dateprops": [], "properties": {}, "geometry": {"type": "Point", "coordinates": [50.8744, 28.8853]}}, {"type": "Feature", "id": "http://data.archaeology.link/data/cigs/KAD", "name": " (KAD)", "dateprops": [], "properties": {}, "geometry": {"type": "Point", "coordinates": [43.2312, 38.4084]}}, {"type": "Feature", "id": "http://data.archaeology.link/data/cigs/MSK", "name": "\u062a\u0644 \u0623\u0628\u0648 \u062f\u0648\u0627\u0631\u064a (MSK)", "dateprops": [], "properties": {}, "geometry": {"type": "Point", "coordinates": [45.2207, 32.4055]}}, {"type": "Feature", "id": "http://data.archaeology.link/data/cigs/TBT", "name": "\u062a\u0644 \u0639\u0628\u0637\u0629 (TBT)", "dateprops": [], "properties": {}, "geometry": {"type": "Point", "coordinates": [42.5619, 35.9432]}}, {"type": "Feature", "id": "http://data.archaeology.link/data/cigs/FKR", "name": "\u062a\u0644 \u0627\u0644\u0641\u062e\u064a\u0631\u064a\u0629 (FKR)", "dateprops": [], "properties": {}, "geometry": {"type": "Point", "coordinates": [40.0707, 36.8424]}}, {"type": "Feature", "id": "http://data.archaeology.link/data/cigs/SZE", "name": "\u062a\u0644 \u0644\u064a\u0644\u0627\u0646 (SZE)", "dateprops": [], "properties": {}, "geometry": {"type": "Point", "coordinates": [41.5069, 36.9579]}}, {"type": "Feature", "id": "http://data.archaeology.link/data/cigs/NUZ", "name": "\u064a\u0648\u0631\u063a\u0627\u0646 \u062a\u0628\u0629 (NUZ)", "dateprops": [], "properties": {}, "geometry": {"type": "Point", "coordinates": [44.2546, 35.3717]}}, {"type": "Feature", "id": "http://data.archaeology.link/data/cigs/UFR", "name": "\u0623\u0645 \u0627\u0644\u062d\u0641\u0631\u064a\u0627\u062a (UFR)", "dateprops": [], "properties": {}, "geometry": {"type": "Point", "coordinates": [45.4813, 32.1323]}}, {"type": "Feature", "id": "http://data.archaeology.link/data/cigs/BOR", "name": "\u0628\u0631\u0633 \u0646\u0645\u0631\u0648\u062f (BOR)", "dateprops": [], "properties": {}, "geometry": {"type": "Point", "coordinates": [44.3434, 32.3924]}}, {"type": "Feature", "id": "http://data.archaeology.link/data/cigs/SMR", "name": "\u0633\u0627\u0645\u0631\u0627\u0621 (SMR)", "dateprops": [], "properties": {}, "geometry": {"type": "Point", "coordinates": [43.8795, 34.2291]}}, {"type": "Feature", "id": "http://data.archaeology.link/data/cigs/UQA", "name": "\u062a\u0644 \u0639\u0642\u064a\u0631 (UQA)", "dateprops": [], "properties": {}, "geometry": {"type": "Point", "coordinates": [44.6643, 32.7817]}}, {"type": "Feature", "id": "http://data.archaeology.link/data/cigs/SIH", "name": " (SIH)", "dateprops": [], "properties": {}, "geometry": {"type": "Point", "coordinates": [43.4354, 38.5072]}}, {"type": "Feature", "id": "http://data.archaeology.link/data/cigs/KCT", "name": " (KCT)", "dateprops": [], "properties": {}, "geometry": {"type": "Point", "coordinates": [41.4978, 39.2805]}}, {"type": "Feature", "id": "http://data.archaeology.link/data/cigs/ALI", "name": " (ALI)", "dateprops": [], "properties": {}, "geometry": {"type": "Point", "coordinates": [43.4868, 38.8548]}}, {"type": "Feature", "id": "http://data.archaeology.link/data/cigs/TJZ", "name": "\u062a\u0631\u062c\u0627\u0646 (TJZ)", "dateprops": [], "properties": {}, "geometry": {"type": "Point", "coordinates": [43.7581, 36.1224]}}, {"type": "Feature", "id": "http://data.archaeology.link/data/cigs/KAH", "name": " (KAH)", "dateprops": [], "properties": {}, "geometry": {"type": "Point", "coordinates": [36.9253, 37.587]}}, {"type": "Feature", "id": "http://data.archaeology.link/data/cigs/AMD", "name": "\u062a\u0644 \u0639\u0627\u0645\u0648\u062f\u0627 (AMD)", "dateprops": [], "properties": {}, "geometry": {"type": "Point", "coordinates": [40.9293, 37.0972]}}, {"type": "Feature", "id": "http://data.archaeology.link/data/cigs/KLK", "name": " (KLK)", "dateprops": [], "properties": {}, "geometry": {"type": "Point", "coordinates": [39.6584, 39.0253]}}, {"type": "Feature", "id": "http://data.archaeology.link/data/cigs/TRM", "name": " (TRM)", "dateprops": [], "properties": {}, "geometry": {"type": "Point", "coordinates": [41.8247, 38.6939]}}, {"type": "Feature", "id": "http://data.archaeology.link/data/cigs/GUG", "name": " (GUG)", "dateprops": [], "properties": {}, "geometry": {"type": "Point", "coordinates": [43.22, 38.3347]}}, {"type": "Feature", "id": "http://data.archaeology.link/data/cigs/TEH", "name": " (TEH)", "dateprops": [], "properties": {}, "geometry": {"type": "Point", "coordinates": [34.9517, 31.9635]}}, {"type": "Feature", "id": "http://data.archaeology.link/data/cigs/MCZ", "name": "Unknown (MCZ)", "dateprops": [], "properties": {}, "geometry": {"type": "Point", "coordinates": [45.3929, 32.1415]}}, {"type": "Feature", "id": "http://data.archaeology.link/data/cigs/IKH", "name": "\u0625\u0634\u0627\u0646 \u0627\u0644\u062e\u0644\u0641\u0629 (IKH)", "dateprops": [], "properties": {}, "geometry": {"type": "Point", "coordinates": [44.715, 32.5105]}}, {"type": "Feature", "id": "http://data.archaeology.link/data/cigs/QQN", "name": "\u0642\u0627\u0642\u0648\u0646 (QQN)", "dateprops": [], "properties": {}, "geometry": {"type": "Point", "coordinates": [34.995, 32.3593]}}, {"type": "Feature", "id": "http://data.archaeology.link/data/cigs/SHZ", "name": " (SHZ)", "dateprops": [], "properties": {}, "geometry": {"type": "Point", "coordinates": [40.4981, 37.0445]}}, {"type": "Feature", "id": "http://data.archaeology.link/data/cigs/CHR", "name": " (CHR)", "dateprops": [], "properties": {}, "geometry": {"type": "Point", "coordinates": [25.1332, 35.3402]}}, {"type": "Feature", "id": "http://data.archaeology.link/data/cigs/MSH", "name": "\u062c\u0628\u0644 \u0645\u0633\u0626\u062e (MSH)", "dateprops": [], "properties": {}, "geometry": {"type": "Point", "coordinates": [40.5553, 34.9738]}}, {"type": "Feature", "id": "http://data.archaeology.link/data/cigs/HIL", "name": "\u0627\u0644\u062d\u0644\u0629 (HIL)", "dateprops": [], "properties": {}, "geometry": {"type": "Point", "coordinates": [44.4361, 32.4844]}}, {"type": "Feature", "id": "http://data.archaeology.link/data/cigs/NGN", "name": "\u0627\u064a\u0634\u0627\u0646 \u0632\u0631\u063a\u0644 (NGN)", "dateprops": [], "properties": {}, "geometry": {"type": "Point", "coordinates": [46.4948, 31.3777]}}, {"type": "Feature", "id": "http://data.archaeology.link/data/cigs/MAL", "name": " (MAL)", "dateprops": [], "properties": {}, "geometry": {"type": "Point", "coordinates": [42.5409, 39.1461]}}, {"type": "Feature", "id": "http://data.archaeology.link/data/cigs/KOK", "name": " (KOK)", "dateprops": [], "properties": {}, "geometry": {"type": "Point", "coordinates": [43.7223, 38.9322]}}, {"type": "Feature", "id": "http://data.archaeology.link/data/cigs/MHD", "name": " (MHD)", "dateprops": [], "properties": {}, "geometry": {"type": "Point", "coordinates": [45.1294, 37.3669]}}, {"type": "Feature", "id": "http://data.archaeology.link/data/cigs/BDI", "name": "\u062a\u0644 \u0628\u062f\u064a\u0631\u064a (BDI)", "dateprops": [], "properties": {}, "geometry": {"type": "Point", "coordinates": [40.8136, 36.3875]}}, {"type": "Feature", "id": "http://data.archaeology.link/data/cigs/MRM", "name": " (MRM)", "dateprops": [], "properties": {}, "geometry": {"type": "Point", "coordinates": [43.7525, 40.8514]}}, {"type": "Feature", "id": "http://data.archaeology.link/data/cigs/MUS", "name": " (MUS)", "dateprops": [], "properties": {}, "geometry": {"type": "Point", "coordinates": [41.4794, 38.733]}}, {"type": "Feature", "id": "http://data.archaeology.link/data/cigs/HRT", "name": "\u0647\u0631\u0627\u062a (HRT)", "dateprops": [], "properties": {}, "geometry": {"type": "Point", "coordinates": [62.1899, 34.3453]}}, {"type": "Feature", "id": "http://data.archaeology.link/data/cigs/NRK", "name": "\u0646\u0645\u0631\u064a\u0643 (NRK)", "dateprops": [], "properties": {}, "geometry": {"type": "Point", "coordinates": [42.8822, 36.7241]}}, {"type": "Feature", "id": "http://data.archaeology.link/data/cigs/THA", "name": " (THA)", "dateprops": [], "properties": {}, "geometry": {"type": "Point", "coordinates": [35.2195, 32.5216]}}, {"type": "Feature", "id": "http://data.archaeology.link/data/cigs/BAR", "name": "Unknown (BAR)", "dateprops": [], "properties": {}, "geometry": {"type": "Point", "coordinates": [44.7947, 32.7029]}}, {"type": "Feature", "id": "http://data.archaeology.link/data/cigs/HAE", "name": " (HAE)", "dateprops": [], "properties": {}, "geometry": {"type": "Point", "coordinates": [41.3538, 39.9056]}}, {"type": "Feature", "id": "http://data.archaeology.link/data/cigs/LIH", "name": " (LIH)", "dateprops": [], "properties": {}, "geometry": {"type": "Point", "coordinates": [38.4806, 37.4733]}}, {"type": "Feature", "id": "http://data.archaeology.link/data/cigs/TAB", "name": "\u062a\u0644 \u0637\u0627\u0628\u0627\u0646 (TAB)", "dateprops": [], "properties": {}, "geometry": {"type": "Point", "coordinates": [40.7878, 36.3362]}}, {"type": "Feature", "id": "http://data.archaeology.link/data/cigs/TBM", "name": " (TBM)", "dateprops": [], "properties": {}, "geometry": {"type": "Point", "coordinates": [34.9105, 31.4557]}}, {"type": "Feature", "id": "http://data.archaeology.link/data/cigs/AZN", "name": " (AZN)", "dateprops": [], "properties": {}, "geometry": {"type": "Point", "coordinates": [42.8337, 39.2502]}}, {"type": "Feature", "id": "http://data.archaeology.link/data/cigs/DEP", "name": "\u062f\u0648\u0631\u0627 \u0623\u0648\u0631\u0628\u0648\u0633 (DEP)", "dateprops": [], "properties": {}, "geometry": {"type": "Point", "coordinates": [40.7298, 34.7479]}}, {"type": "Feature", "id": "http://data.archaeology.link/data/cigs/BAH", "name": " (BAH)", "dateprops": [], "properties": {}, "geometry": {"type": "Point", "coordinates": [40.0858, 38.9117]}}, {"type": "Feature", "id": "http://data.archaeology.link/data/cigs/JRD", "name": "\u062c\u0628\u0644 \u0639\u0627\u0631\u0648\u062f\u0629 (JRD)", "dateprops": [], "properties": {}, "geometry": {"type": "Point", "coordinates": [38.0984, 36.2349]}}, {"type": "Feature", "id": "http://data.archaeology.link/data/cigs/AJA", "name": "\u0627\u0628\u0648 \u062c\u0627\u0645\u0648\u0633 (AJA)", "dateprops": [], "properties": {}, "geometry": {"type": "Point", "coordinates": [44.8225, 32.4605]}}, {"type": "Feature", "id": "http://data.archaeology.link/data/cigs/TGA", "name": " (TGA)", "dateprops": [], "properties": {}, "geometry": {"type": "Point", "coordinates": [47.3375, 32.5802]}}, {"type": "Feature", "id": "http://data.archaeology.link/data/cigs/KHW", "name": "\u062e\u0627\u0646 \u062d\u0633\u0648\u0627 (KHW)", "dateprops": [], "properties": {}, "geometry": {"type": "Point", "coordinates": [44.4016, 32.8277]}}, {"type": "Feature", "id": "http://data.archaeology.link/data/cigs/BUR", "name": "\u062a\u0644 \u0627\u0644\u0634\u064a\u0648\u062e \u0641\u0648\u0642\u0627\u0646\u064a (BUR)", "dateprops": [], "properties": {}, "geometry": {"type": "Point", "coordinates": [38.0359, 36.7875]}}, {"type": "Feature", "id": "http://data.archaeology.link/data/cigs/HAR", "name": " (HAR)", "dateprops": [], "properties": {}, "geometry": {"type": "Point", "coordinates": [39.0309, 36.8634]}}, {"type": "Feature", "id": "http://data.archaeology.link/data/cigs/ERD", "name": " (ERD)", "dateprops": [], "properties": {}, "geometry": {"type": "Point", "coordinates": [43.5556, 38.4813]}}, {"type": "Feature", "id": "http://data.archaeology.link/data/cigs/MHO", "name": " (MHO)", "dateprops": [], "properties": {}, "geometry": {"type": "Point", "coordinates": [35.7624, 40.1481]}}, {"type": "Feature", "id": "http://data.archaeology.link/data/cigs/GOZ", "name": " (GOZ)", "dateprops": [], "properties": {}, "geometry": {"type": "Point", "coordinates": [34.8956, 36.9123]}}, {"type": "Feature", "id": "http://data.archaeology.link/data/cigs/TBS", "name": "Unknown (TBS)", "dateprops": [], "properties": {}, "geometry": {"type": "Point", "coordinates": [46.1685, 30.9786]}}, {"type": "Feature", "id": "http://data.archaeology.link/data/cigs/MLK", "name": "\u0627\u0644\u0645\u062e\u0637\u0637 (MLK)", "dateprops": [], "properties": {}, "geometry": {"type": "Point", "coordinates": [44.4962, 32.337]}}, {"type": "Feature", "id": "http://data.archaeology.link/data/cigs/ADI", "name": " (ADI)", "dateprops": [], "properties": {}, "geometry": {"type": "Point", "coordinates": [42.7291, 38.8014]}}, {"type": "Feature", "id": "http://data.archaeology.link/data/cigs/HSK", "name": " (HSK)", "dateprops": [], "properties": {}, "geometry": {"type": "Point", "coordinates": [41.4137, 37.7137]}}, {"type": "Feature", "id": "http://data.archaeology.link/data/cigs/RTE", "name": "\u0631\u0628\u062a \u062a\u067e\u0647 (RTE)", "dateprops": [], "properties": {}, "geometry": {"type": "Point", "coordinates": [45.5397, 36.201]}}, {"type": "Feature", "id": "http://data.archaeology.link/data/cigs/AUS", "name": "\u062a\u0644 \u0639\u0648\u0634\u0631\u064a\u0629 (AUS)", "dateprops": [], "properties": {}, "geometry": {"type": "Point", "coordinates": [38.0755, 36.6599]}}, {"type": "Feature", "id": "http://data.archaeology.link/data/cigs/SUN", "name": " (SUN)", "dateprops": [], "properties": {}, "geometry": {"type": "Point", "coordinates": [42.2432, 40.2139]}}, {"type": "Feature", "id": "http://data.archaeology.link/data/cigs/RBT", "name": "\u062a\u0644 \u0639\u0631\u0628\u064a\u062f (RBT)", "dateprops": [], "properties": {}, "geometry": {"type": "Point", "coordinates": [41.0207, 36.8728]}}, {"type": "Feature", "id": "http://data.archaeology.link/data/cigs/RSL", "name": "\u0627\u0644\u0642\u062f\u0633 (RSL)", "dateprops": [], "properties": {}, "geometry": {"type": "Point", "coordinates": [35.2358, 31.7777]}}, {"type": "Feature", "id": "http://data.archaeology.link/data/cigs/CKK", "name": " (CKK)", "dateprops": [], "properties": {}, "geometry": {"type": "Point", "coordinates": [47.601, 33.1998]}}, {"type": "Feature", "id": "http://data.archaeology.link/data/cigs/FSN", "name": "\u062a\u0644 \u0641\u0633\u0646\u0629 (FSN)", "dateprops": [], "properties": {}, "geometry": {"type": "Point", "coordinates": [42.8899, 36.7079]}}, {"type": "Feature", "id": "http://data.archaeology.link/data/cigs/VAK", "name": " (VAK)", "dateprops": [], "properties": {}, "geometry": {"type": "Point", "coordinates": [43.3551, 38.5156]}}, {"type": "Feature", "id": "http://data.archaeology.link/data/cigs/RUS", "name": " (RUS)", "dateprops": [], "properties": {}, "geometry": {"type": "Point", "coordinates": [43.4064, 38.5102]}}, {"type": "Feature", "id": "http://data.archaeology.link/data/cigs/ADA", "name": " (ADA)", "dateprops": [], "properties": {}, "geometry": {"type": "Point", "coordinates": [42.5142, 39.124]}}, {"type": "Feature", "id": "http://data.archaeology.link/data/cigs/MCY", "name": "Unknown (MCY)", "dateprops": [], "properties": {}, "geometry": {"type": "Point", "coordinates": [45.6611, 31.8977]}}, {"type": "Feature", "id": "http://data.archaeology.link/data/cigs/ATB", "name": "\u0627\u0628\u0648 \u0637\u0628\u064a\u0631\u0629 (ATB)", "dateprops": [], "properties": {}, "geometry": {"type": "Point", "coordinates": [46.2678, 30.9828]}}, {"type": "Feature", "id": "http://data.archaeology.link/data/cigs/BAQ", "name": "\u062a\u0644 \u0628\u0642\u0627\u0642 (BAQ)", "dateprops": [], "properties": {}, "geometry": {"type": "Point", "coordinates": [42.9369, 36.6888]}}, {"type": "Feature", "id": "http://data.archaeology.link/data/cigs/HSI", "name": " (HSI)", "dateprops": [], "properties": {}, "geometry": {"type": "Point", "coordinates": [34.7307, 31.5474]}}, {"type": "Feature", "id": "http://data.archaeology.link/data/cigs/QIT", "name": "\u062a\u0644 \u0627\u0644\u0642\u0637\u0627\u0631 (QIT)", "dateprops": [], "properties": {}, "geometry": {"type": "Point", "coordinates": [38.1803, 36.3837]}}, {"type": "Feature", "id": "http://data.archaeology.link/data/cigs/UCH", "name": "\u062a\u0644 \u0627\u0644\u0645\u062c\u0627\u062a\u0644 (UCH)", "dateprops": [], "properties": {}, "geometry": {"type": "Point", "coordinates": [46.5784, 31.3901]}}, {"type": "Feature", "id": "http://data.archaeology.link/data/cigs/NNV", "name": "\u0646\u064a\u0646\u0648\u0649 (NNV)", "dateprops": [], "properties": {}, "geometry": {"type": "Point", "coordinates": [43.1621, 36.3582]}}, {"type": "Feature", "id": "http://data.archaeology.link/data/cigs/MHR", "name": " (MHR)", "dateprops": [], "properties": {}, "geometry": {"type": "Point", "coordinates": [43.3875, 38.5182]}}, {"type": "Feature", "id": "http://data.archaeology.link/data/cigs/MUG", "name": "\u0623\u0645 \u0627\u0644\u062c\u064a\u0631 (MUG)", "dateprops": [], "properties": {}, "geometry": {"type": "Point", "coordinates": [44.8501, 32.6497]}}, {"type": "Feature", "id": "http://data.archaeology.link/data/cigs/DEG", "name": " (DEG)", "dateprops": [], "properties": {}, "geometry": {"type": "Point", "coordinates": [43.5152, 38.5131]}}, {"type": "Feature", "id": "http://data.archaeology.link/data/cigs/UPI", "name": "\u0623\u0648\u0628\u064a\u0633 (UPI)", "dateprops": [], "properties": {}, "geometry": {"type": "Point", "coordinates": [44.7014, 33.1844]}}, {"type": "Feature", "id": "http://data.archaeology.link/data/cigs/PHU", "name": " (PHU)", "dateprops": [], "properties": {}, "geometry": {"type": "Point", "coordinates": [40.3875, 38.1113]}}, {"type": "Feature", "id": "http://data.archaeology.link/data/cigs/QNT", "name": "\u0642\u0646\u062a\u064a\u0631 (QNT)", "dateprops": [], "properties": {}, "geometry": {"type": "Point", "coordinates": [31.8345, 30.8017]}}, {"type": "Feature", "id": "http://data.archaeology.link/data/cigs/TEI", "name": " (TEI)", "dateprops": [], "properties": {}, "geometry": {"type": "Point", "coordinates": [44.4509, 40.1529]}}, {"type": "Feature", "id": "http://data.archaeology.link/data/cigs/SJQ", "name": "\u06a9\u06c6\u06cc\u0633\u06cc\u0646\u062c\u0627\u0642 (SJQ)", "dateprops": [], "properties": {}, "geometry": {"type": "Point", "coordinates": [44.6278, 36.0847]}}, {"type": "Feature", "id": "http://data.archaeology.link/data/cigs/DRE", "name": "\u062a\u0644 \u062f\u0631\u064a\u0647\u0645 (DRE)", "dateprops": [], "properties": {}, "geometry": {"type": "Point", "coordinates": [45.2922, 32.0591]}}, {"type": "Feature", "id": "http://data.archaeology.link/data/cigs/TSV", "name": " (TSV)", "dateprops": [], "properties": {}, "geometry": {"type": "Point", "coordinates": [45.495, 40.1537]}}, {"type": "Feature", "id": "http://data.archaeology.link/data/cigs/CGV", "name": " (CGV)", "dateprops": [], "properties": {}, "geometry": {"type": "Point", "coordinates": [46.5286, 34.1101]}}, {"type": "Feature", "id": "http://data.archaeology.link/data/cigs/KKL", "name": " (KKL)", "dateprops": [], "properties": {}, "geometry": {"type": "Point", "coordinates": [43.8488, 40.0487]}}, {"type": "Feature", "id": "http://data.archaeology.link/data/cigs/CAV", "name": " (CAV)", "dateprops": [], "properties": {}, "geometry": {"type": "Point", "coordinates": [43.4619, 38.3533]}}, {"type": "Feature", "id": "http://data.archaeology.link/data/cigs/TYR", "name": "\u0635\u0648\u0631 (TYR)", "dateprops": [], "properties": {}, "geometry": {"type": "Point", "coordinates": [35.1943, 33.2706]}}, {"type": "Feature", "id": "http://data.archaeology.link/data/cigs/TBO", "name": "\u062a\u067e\u0647 \u0628\u0631\u0645\u06cc (TBO)", "dateprops": [], "properties": {}, "geometry": {"type": "Point", "coordinates": [49.589, 31.2413]}}, {"type": "Feature", "id": "http://data.archaeology.link/data/cigs/KFA", "name": " (KFA)", "dateprops": [], "properties": {}, "geometry": {"type": "Point", "coordinates": [49.9286, 31.8706]}}, {"type": "Feature", "id": "http://data.archaeology.link/data/cigs/MET", "name": " (MET)", "dateprops": [], "properties": {}, "geometry": {"type": "Point", "coordinates": [44.1869, 40.1264]}}, {"type": "Feature", "id": "http://data.archaeology.link/data/cigs/SBA", "name": "\u0633\u0628\u0627\u0639 (SBA)", "dateprops": [], "properties": {}, "geometry": {"type": "Point", "coordinates": [41.081, 34.7579]}}, {"type": "Feature", "id": "http://data.archaeology.link/data/cigs/KOU", "name": " (KOU)", "dateprops": [], "properties": {}, "geometry": {"type": "Point", "coordinates": [32.8844, 34.6666]}}, {"type": "Feature", "id": "http://data.archaeology.link/data/cigs/ARK", "name": " (ARK)", "dateprops": [], "properties": {}, "geometry": {"type": "Point", "coordinates": [43.0669, 38.8107]}}, {"type": "Feature", "id": "http://data.archaeology.link/data/cigs/TYM", "name": "\u062a\u064a\u0645\u0627 (TYM)", "dateprops": [], "properties": {}, "geometry": {"type": "Point", "coordinates": [38.5499, 27.6219]}}, {"type": "Feature", "id": "http://data.archaeology.link/data/cigs/BAW", "name": "\u0646\u0643\u0631\u0623\u0648I (BAW)", "dateprops": [], "properties": {}, "geometry": {"type": "Point", "coordinates": [45.9403, 35.2215]}}, {"type": "Feature", "id": "http://data.archaeology.link/data/cigs/UMA", "name": "\u0623\u0645 \u0627\u0644\u0645\u0631\u0629 (UMA)", "dateprops": [], "properties": {}, "geometry": {"type": "Point", "coordinates": [37.6936, 36.134]}}, {"type": "Feature", "id": "http://data.archaeology.link/data/cigs/KOC", "name": " (KOC)", "dateprops": [], "properties": {}, "geometry": {"type": "Point", "coordinates": [42.7035, 39.231]}}, {"type": "Feature", "id": "http://data.archaeology.link/data/cigs/SNJ", "name": "\u0628\u062a\u0648\u0627\u062a\u0627 (SNJ)", "dateprops": [], "properties": {}, "geometry": {"type": "Point", "coordinates": [44.7031, 36.3398]}}, {"type": "Feature", "id": "http://data.archaeology.link/data/cigs/TLL", "name": "\u062a\u0644\u0648\u0644 \u0627\u0644\u0644\u0643 (TLL)", "dateprops": [], "properties": {}, "geometry": {"type": "Point", "coordinates": [43.2638, 36.2983]}}, {"type": "Feature", "id": "http://data.archaeology.link/data/cigs/BUL", "name": " (BUL)", "dateprops": [], "properties": {}, "geometry": {"type": "Point", "coordinates": [42.655, 39.3397]}}, {"type": "Feature", "id": "http://data.archaeology.link/data/cigs/DLM", "name": "\u0642\u0644\u0639\u0629 \u0627\u0644\u0628\u062d\u0631\u064a\u0646 (DLM)", "dateprops": [], "properties": {}, "geometry": {"type": "Point", "coordinates": [50.5209, 26.2328]}}, {"type": "Feature", "id": "http://data.archaeology.link/data/cigs/INA", "name": " (INA)", "dateprops": [], "properties": {}, "geometry": {"type": "Point", "coordinates": [33.5352, 40.381]}}, {"type": "Feature", "id": "http://data.archaeology.link/data/cigs/RKI", "name": "\u062e\u0627\u0631\u06a9 (RKI)", "dateprops": [], "properties": {}, "geometry": {"type": "Point", "coordinates": [50.3091, 29.2493]}}, {"type": "Feature", "id": "http://data.archaeology.link/data/cigs/XOC", "name": " (XOC)", "dateprops": [], "properties": {}, "geometry": {"type": "Point", "coordinates": [46.8015, 39.906]}}, {"type": "Feature", "id": "http://data.archaeology.link/data/cigs/AFA", "name": "\u062a\u0644\u0648\u0644 \u0627\u0644\u0641\u0627\u062c (AFA)", "dateprops": [], "properties": {}, "geometry": {"type": "Point", "coordinates": [45.0956, 32.5741]}}, {"type": "Feature", "id": "http://data.archaeology.link/data/cigs/NIM", "name": "\u0646\u0645\u0631\u0648\u062f (NIM)", "dateprops": [], "properties": {}, "geometry": {"type": "Point", "coordinates": [43.3385, 36.1022]}}, {"type": "Feature", "id": "http://data.archaeology.link/data/cigs/IRS", "name": " (IRS)", "dateprops": [], "properties": {}, "geometry": {"type": "Point", "coordinates": [45.3689, 32.1529]}}, {"type": "Feature", "id": "http://data.archaeology.link/data/cigs/EMR", "name": "\u062a\u0644 \u0645\u0633\u0643\u0646\u0629 (EMR)", "dateprops": [], "properties": {}, "geometry": {"type": "Point", "coordinates": [38.1126, 35.9876]}}, {"type": "Feature", "id": "http://data.archaeology.link/data/cigs/TAR", "name": " (TAR)", "dateprops": [], "properties": {}, "geometry": {"type": "Point", "coordinates": [43.7195, 38.9476]}}, {"type": "Feature", "id": "http://data.archaeology.link/data/cigs/DIL", "name": "\u0639\u0627\u0644\u064a (DIL)", "dateprops": [], "properties": {}, "geometry": {"type": "Point", "coordinates": [50.5256, 26.1517]}}, {"type": "Feature", "id": "http://data.archaeology.link/data/cigs/KNS", "name": " (KNS)", "dateprops": [], "properties": {}, "geometry": {"type": "Point", "coordinates": [35.6365, 38.8517]}}, {"type": "Feature", "id": "http://data.archaeology.link/data/cigs/QUF", "name": "\u0642\u0641\u0640\u0637 (QUF)", "dateprops": [], "properties": {}, "geometry": {"type": "Point", "coordinates": [32.8158, 25.9966]}}, {"type": "Feature", "id": "http://data.archaeology.link/data/cigs/LMA", "name": " (LMA)", "dateprops": [], "properties": {}, "geometry": {"type": "Point", "coordinates": [51.2172, 31.0449]}}, {"type": "Feature", "id": "http://data.archaeology.link/data/cigs/NAL", "name": " (NAL)", "dateprops": [], "properties": {}, "geometry": {"type": "Point", "coordinates": [43.9873, 40.0628]}}, {"type": "Feature", "id": "http://data.archaeology.link/data/cigs/SCH", "name": "\u062a\u0644 \u0628\u0644\u0627\u0637\u0629\u200e (SCH)", "dateprops": [], "properties": {}, "geometry": {"type": "Point", "coordinates": [35.2827, 32.2135]}}, {"type": "Feature", "id": "http://data.archaeology.link/data/cigs/HOR", "name": " (HOR)", "dateprops": [], "properties": {}, "geometry": {"type": "Point", "coordinates": [48.5022, 32.0313]}}, {"type": "Feature", "id": "http://data.archaeology.link/data/cigs/BAL", "name": " (BAL)", "dateprops": [], "properties": {}, "geometry": {"type": "Point", "coordinates": [39.9002, 39.0034]}}, {"type": "Feature", "id": "http://data.archaeology.link/data/cigs/GWR", "name": "\u062a\u067e\u0647 \u06af\u0648\u0631\u06d5 (GWR)", "dateprops": [], "properties": {}, "geometry": {"type": "Point", "coordinates": [43.2604, 36.4958]}}, {"type": "Feature", "id": "http://data.archaeology.link/data/cigs/KUB", "name": "\u0643\u0648\u0628\u0631\u064a (KUB)", "dateprops": [], "properties": {}, "geometry": {"type": "Point", "coordinates": [32.5527, 30.113]}}, {"type": "Feature", "id": "http://data.archaeology.link/data/cigs/JDG", "name": " (JDG)", "dateprops": [], "properties": {}, "geometry": {"type": "Point", "coordinates": [42.3668, 37.3838]}}, {"type": "Feature", "id": "http://data.archaeology.link/data/cigs/ELM", "name": " (ELM)", "dateprops": [], "properties": {}, "geometry": {"type": "Point", "coordinates": [43.3098, 38.4119]}}, {"type": "Feature", "id": "http://data.archaeology.link/data/cigs/TVI", "name": " (TVI)", "dateprops": [], "properties": {}, "geometry": {"type": "Point", "coordinates": [46.6182, 34.9961]}}, {"type": "Feature", "id": "http://data.archaeology.link/data/cigs/ALH", "name": " (ALH)", "dateprops": [], "properties": {}, "geometry": {"type": "Point", "coordinates": [34.6951, 40.2344]}}, {"type": "Feature", "id": "http://data.archaeology.link/data/cigs/TIK", "name": "\u062a\u0643\u0631\u064a\u062a (TIK)", "dateprops": [], "properties": {}, "geometry": {"type": "Point", "coordinates": [43.6753, 34.5974]}}, {"type": "Feature", "id": "http://data.archaeology.link/data/cigs/AWA", "name": "\u0642\u0644\u0639\u0629 \u0639\u0648\u064a\u0646\u0629 (AWA)", "dateprops": [], "properties": {}, "geometry": {"type": "Point", "coordinates": [43.7195, 36.0754]}}, {"type": "Feature", "id": "http://data.archaeology.link/data/cigs/TFA", "name": "Unknown (TFA)", "dateprops": [], "properties": {}, "geometry": {"type": "Point", "coordinates": [43.4612, 35.2652]}}, {"type": "Feature", "id": "http://data.archaeology.link/data/cigs/BBK", "name": " (BBK)", "dateprops": [], "properties": {}, "geometry": {"type": "Point", "coordinates": [44.2549, 39.9374]}}, {"type": "Feature", "id": "http://data.archaeology.link/data/cigs/MZA", "name": "\u0625\u0634\u0627\u0646 \u0645\u0632\u064a\u0627\u062f (MZA)", "dateprops": [], "properties": {}, "geometry": {"type": "Point", "coordinates": [44.5561, 32.5932]}}, {"type": "Feature", "id": "http://data.archaeology.link/data/cigs/YAH", "name": " (YAH)", "dateprops": [], "properties": {}, "geometry": {"type": "Point", "coordinates": [56.8675, 28.3309]}}, {"type": "Feature", "id": "http://data.archaeology.link/data/cigs/IHN", "name": "\u0631\u0623\u0633 \u0627\u0628\u0646 \u0647\u0627\u0646\u064a (IHN)", "dateprops": [], "properties": {}, "geometry": {"type": "Point", "coordinates": [35.7348, 35.587]}}, {"type": "Feature", "id": "http://data.archaeology.link/data/cigs/AKH", "name": "\u0627\u0644\u0639\u0645\u0627\u0631\u0646\u0629 (AKH)", "dateprops": [], "properties": {}, "geometry": {"type": "Point", "coordinates": [30.8959, 27.64]}}, {"type": "Feature", "id": "http://data.archaeology.link/data/cigs/QUA", "name": "\u0627\u0644 \u0623\u0628\u0648 \u0645\u0627\u0631\u064a\u0627 (QUA)", "dateprops": [], "properties": {}, "geometry": {"type": "Point", "coordinates": [42.5973, 36.4295]}}, {"type": "Feature", "id": "http://data.archaeology.link/data/cigs/TOD", "name": "\u0637\u0648\u062f (TOD)", "dateprops": [], "properties": {}, "geometry": {"type": "Point", "coordinates": [32.5332, 25.5832]}}, {"type": "Feature", "id": "http://data.archaeology.link/data/cigs/KLC", "name": " (KLC)", "dateprops": [], "properties": {}, "geometry": {"type": "Point", "coordinates": [43.3377, 38.5459]}}, {"type": "Feature", "id": "http://data.archaeology.link/data/cigs/TYA", "name": " (TYA)", "dateprops": [], "properties": {}, "geometry": {"type": "Point", "coordinates": [45.0983, 32.5612]}}, {"type": "Feature", "id": "http://data.archaeology.link/data/cigs/URI", "name": "\u062a\u0644 \u0627\u0644\u0645\u0642\u064a\u0631 (URI)", "dateprops": [], "properties": {}, "geometry": {"type": "Point", "coordinates": [46.1063, 30.9607]}}, {"type": "Feature", "id": "http://data.archaeology.link/data/cigs/HFR", "name": "\u0623\u0645 \u0627\u0644\u062d\u0641\u0631\u064a\u0627\u062a (HFR)", "dateprops": [], "properties": {}, "geometry": {"type": "Point", "coordinates": [45.4915, 31.6426]}}, {"type": "Feature", "id": "http://data.archaeology.link/data/cigs/GNT", "name": " (GNT)", "dateprops": [], "properties": {}, "geometry": {"type": "Point", "coordinates": [62.0377, 38.2129]}}, {"type": "Feature", "id": "http://data.archaeology.link/data/cigs/KFK", "name": " (KFK)", "dateprops": [], "properties": {}, "geometry": {"type": "Point", "coordinates": [42.7191, 38.8334]}}, {"type": "Feature", "id": "http://data.archaeology.link/data/cigs/FDW", "name": " (FDW)", "dateprops": [], "properties": {}, "geometry": {"type": "Point", "coordinates": [48.3164, 32.0941]}}, {"type": "Feature", "id": "http://data.archaeology.link/data/cigs/GRD", "name": " (GRD)", "dateprops": [], "properties": {}, "geometry": {"type": "Point", "coordinates": [45.9157, 35.7528]}}, {"type": "Feature", "id": "http://data.archaeology.link/data/cigs/SAV", "name": " (SAV)", "dateprops": [], "properties": {}, "geometry": {"type": "Point", "coordinates": [43.6173, 38.4123]}}, {"type": "Feature", "id": "http://data.archaeology.link/data/cigs/DAM", "name": "\u062a\u0644 \u062f\u0627\u0645\u064a\u0627 (DAM)", "dateprops": [], "properties": {}, "geometry": {"type": "Point", "coordinates": [35.5469, 32.1038]}},