{"type": "FeatureCollection", "id": "http://data.archaeology.link/data/cigs/CuneiformSite_collection", "name": "CuneiformSite Instances Collection", "features": [{"type": "Feature", "id": "http://data.archaeology.link/data/cigs/SLG", "name": "Tas-Sil\u0121 (SLG)", "dateprops": [], "properties": {}, "geometry": {"type": "Point", "coordinates": [14.5519, 35.8459]}}, {"type": "Feature", "id": "http://data.archaeology.link/data/cigs/THE", "name": "Thiva (THE)", "dateprops": [], "properties": {}, "geometry": {"type": "Point", "coordinates": [23.3177, 38.3207]}}, {"type": "Feature", "id": "http://data.archaeology.link/data/cigs/BUK", "name": "B\u00fckl\u00fckale (BUK)", "dateprops": [], "properties": {}, "geometry": {"type": "Point", "coordinates": [33.4283, 39.5832]}}, {"type": "Feature", "id": "http://data.archaeology.link/data/cigs/GRL", "name": "Gherla (GRL)", "dateprops": [], "properties": {}, "geometry": {"type": "Point", "coordinates": [23.8915, 47.0195]}}, {"type": "Feature", "id": "http://data.archaeology.link/data/cigs/GNT", "name": "Go\u0148ur depe (GNT)", "dateprops": [], "properties": {}, "geometry": {"type": "Point", "coordinates": [62.0377, 38.2129]}}, {"type": "Feature", "id": "http://data.archaeology.link/data/cigs/KAI", "name": "Kaisaran (KAI)", "dateprops": [], "properties": {}, "geometry": {"type": "Point", "coordinates": [43.6446, 38.466]}}, {"type": "Feature", "id": "http://data.archaeology.link/data/cigs/HUZ", "name": "Huzirina (HUZ)", "dateprops": [], "properties": {}, "geometry": {"type": "Point", "coordinates": [38.9062, 37.0501]}}, {"type": "Feature", "id": "http://data.archaeology.link/data/cigs/SAP", "name": "Sippar (SAP)", "dateprops": [], "properties": {}, "geometry": {"type": "Point", "coordinates": [44.2552, 33.0605]}}, {"type": "Feature", "id": "http://data.archaeology.link/data/cigs/BAH", "name": "Bah\u00e7ecik (BAH)", "dateprops": [], "properties": {}, "geometry": {"type": "Point", "coordinates": [40.0858, 38.9117]}}, {"type": "Feature", "id": "http://data.archaeology.link/data/cigs/DEG", "name": "De\u011firmenk\u00f6y (DEG)", "dateprops": [], "properties": {}, "geometry": {"type": "Point", "coordinates": [43.5152, 38.5131]}}, {"type": "Feature", "id": "http://data.archaeology.link/data/cigs/KCT", "name": "Ko\u00e7yata\u011f\u0131 (KCT)", "dateprops": [], "properties": {}, "geometry": {"type": "Point", "coordinates": [41.4978, 39.2805]}}, {"type": "Feature", "id": "http://data.archaeology.link/data/cigs/SIY", "name": "\u0633\u06cc\u0647\u200c\u0686\u0634\u0645\u0647 (SIY)", "dateprops": [], "properties": {}, "geometry": {"type": "Point", "coordinates": [44.3867, 39.0659]}}, {"type": "Feature", "id": "http://data.archaeology.link/data/cigs/ANS", "name": "An\u0161an (ANS)", "dateprops": [], "properties": {}, "geometry": {"type": "Point", "coordinates": [52.4123, 30.0119]}}, {"type": "Feature", "id": "http://data.archaeology.link/data/cigs/KRG", "name": "Karag\u00fcnd\u00fcz (KRG)", "dateprops": [], "properties": {}, "geometry": {"type": "Point", "coordinates": [43.6459, 38.6955]}}, {"type": "Feature", "id": "http://data.archaeology.link/data/cigs/SAR", "name": "Dur-\u0160arrukin (SAR)", "dateprops": [], "properties": {}, "geometry": {"type": "Point", "coordinates": [43.2347, 36.5035]}}, {"type": "Feature", "id": "http://data.archaeology.link/data/cigs/DMU", "name": "Admannu (DMU)", "dateprops": [], "properties": {}, "geometry": {"type": "Point", "coordinates": [43.682, 35.3819]}}, {"type": "Feature", "id": "http://data.archaeology.link/data/cigs/GRO", "name": "Tall Karay Q\u0101sim (GRO)", "dateprops": [], "properties": {}, "geometry": {"type": "Point", "coordinates": [42.9257, 36.6789]}}, {"type": "Feature", "id": "http://data.archaeology.link/data/cigs/SAI", "name": "Al-Say\u0101l (SAI)", "dateprops": [], "properties": {}, "geometry": {"type": "Point", "coordinates": [40.9096, 34.597]}}, {"type": "Feature", "id": "http://data.archaeology.link/data/cigs/TSV", "name": "Alitschalu (TSV)", "dateprops": [], "properties": {}, "geometry": {"type": "Point", "coordinates": [45.495, 40.1537]}}, {"type": "Feature", "id": "http://data.archaeology.link/data/cigs/THO", "name": "Turlu H\u00f6y\u00fck (THO)", "dateprops": [], "properties": {}, "geometry": {"type": "Point", "coordinates": [37.7581, 37.0676]}}, {"type": "Feature", "id": "http://data.archaeology.link/data/cigs/ZTP", "name": "Tushhan (ZTP)", "dateprops": [], "properties": {}, "geometry": {"type": "Point", "coordinates": [40.7929, 37.7936]}}, {"type": "Feature", "id": "http://data.archaeology.link/data/cigs/AJA", "name": "Ab\u016b J\u0101m\u016bs (AJA)", "dateprops": [], "properties": {}, "geometry": {"type": "Point", "coordinates": [44.8225, 32.4605]}}, {"type": "Feature", "id": "http://data.archaeology.link/data/cigs/KDR", "name": "Al-Khi\u1e0dr (KDR)", "dateprops": [], "properties": {}, "geometry": {"type": "Point", "coordinates": [48.288, 29.4657]}}, {"type": "Feature", "id": "http://data.archaeology.link/data/cigs/QHD", "name": "Tall al-H\u0101d\u012b (QHD)", "dateprops": [], "properties": {}, "geometry": {"type": "Point", "coordinates": [41.865, 36.8707]}}, {"type": "Feature", "id": "http://data.archaeology.link/data/cigs/GAR", "name": "Garni (GAR)", "dateprops": [], "properties": {}, "geometry": {"type": "Point", "coordinates": [44.7299, 40.1124]}}, {"type": "Feature", "id": "http://data.archaeology.link/data/cigs/MHN", "name": "\u0645\u0627\u0647\u0627\u0646 (MHN)", "dateprops": [], "properties": {}, "geometry": {"type": "Point", "coordinates": [57.29, 30.0598]}}, {"type": "Feature", "id": "http://data.archaeology.link/data/cigs/IHF", "name": "Ish\u0101n H\u0101fudh (IHF)", "dateprops": [], "properties": {}, "geometry": {"type": "Point", "coordinates": [45.4207, 31.9569]}}, {"type": "Feature", "id": "http://data.archaeology.link/data/cigs/KSX", "name": "\u06a9\u0647\u0646\u06a9 (KSX)", "dateprops": [], "properties": {}, "geometry": {"type": "Point", "coordinates": [48.6185, 32.2683]}}, {"type": "Feature", "id": "http://data.archaeology.link/data/cigs/MHD", "name": "\u0645\u062d\u0645\u0648\u062f\u0622\u0628\u0627\u062f (MHD)", "dateprops": [], "properties": {}, "geometry": {"type": "Point", "coordinates": [45.1294, 37.3669]}}, {"type": "Feature", "id": "http://data.archaeology.link/data/cigs/HLT", "name": "Hala Sultan Tekes (HLT)", "dateprops": [], "properties": {}, "geometry": {"type": "Point", "coordinates": [33.6059, 34.8856]}}, {"type": "Feature", "id": "http://data.archaeology.link/data/cigs/KOT", "name": "Kotanl\u0131 (KOT)", "dateprops": [], "properties": {}, "geometry": {"type": "Point", "coordinates": [42.2482, 39.1412]}}, {"type": "Feature", "id": "http://data.archaeology.link/data/cigs/UQR", "name": "Tall Umm al-\u02bbAjarib (UQR)", "dateprops": [], "properties": {}, "geometry": {"type": "Point", "coordinates": [45.9339, 31.6207]}}, {"type": "Feature", "id": "http://data.archaeology.link/data/cigs/KSI", "name": "K\u0101n\u012b Sh\u0101yah (KSI)", "dateprops": [], "properties": {}, "geometry": {"type": "Point", "coordinates": [45.1764, 35.5579]}}, {"type": "Feature", "id": "http://data.archaeology.link/data/cigs/ZWY", "name": "Zawiyah (ZWY)", "dateprops": [], "properties": {}, "geometry": {"type": "Point", "coordinates": [42.1725, 34.2925]}}, {"type": "Feature", "id": "http://data.archaeology.link/data/cigs/MAR", "name": "Mari (MAR)", "dateprops": [], "properties": {}, "geometry": {"type": "Point", "coordinates": [40.8887, 34.5504]}}, {"type": "Feature", "id": "http://data.archaeology.link/data/cigs/SAV", "name": "Savac\u0131k (SAV)", "dateprops": [], "properties": {}, "geometry": {"type": "Point", "coordinates": [43.6173, 38.4123]}}, {"type": "Feature", "id": "http://data.archaeology.link/data/cigs/KEB", "name": "Kenk Bo\u01e7az\u0131 (KEB)", "dateprops": [], "properties": {}, "geometry": {"type": "Point", "coordinates": [37.8436, 37.2506]}}, {"type": "Feature", "id": "http://data.archaeology.link/data/cigs/BIS", "name": "\u0628\u06cc\u0633\u062a\u0648\u0646\u200e (BIS)", "dateprops": [], "properties": {}, "geometry": {"type": "Point", "coordinates": [47.4318, 34.3881]}}, {"type": "Feature", "id": "http://data.archaeology.link/data/cigs/HUM", "name": "Tul\u016bl al-Hummar (HUM)", "dateprops": [], "properties": {}, "geometry": {"type": "Point", "coordinates": [45.4998, 31.6166]}}, {"type": "Feature", "id": "http://data.archaeology.link/data/cigs/KLB", "name": "Nahr al-Kalb (KLB)", "dateprops": [], "properties": {}, "geometry": {"type": "Point", "coordinates": [35.5966, 33.9554]}}, {"type": "Feature", "id": "http://data.archaeology.link/data/cigs/VAK", "name": "Van (VAK)", "dateprops": [], "properties": {}, "geometry": {"type": "Point", "coordinates": [43.3551, 38.5156]}}, {"type": "Feature", "id": "http://data.archaeology.link/data/cigs/BES", "name": "Be\u015f\u00e7atak (BES)", "dateprops": [], "properties": {}, "geometry": {"type": "Point", "coordinates": [43.5635, 38.5159]}}, {"type": "Feature", "id": "http://data.archaeology.link/data/cigs/HMD", "name": "Hamad\u0101n (HMD)", "dateprops": [], "properties": {}, "geometry": {"type": "Point", "coordinates": [48.5171, 34.8043]}}, {"type": "Feature", "id": "http://data.archaeology.link/data/cigs/KFA", "name": "\u06a9\u0648\u0644\u200c\u0641\u0631\u062d (KFA)", "dateprops": [], "properties": {}, "geometry": {"type": "Point", "coordinates": [49.9286, 31.8706]}}, {"type": "Feature", "id": "http://data.archaeology.link/data/cigs/SMA", "name": "\u05e9\u05d5\u05de\u05e8\u05d5\u05df (SMA)", "dateprops": [], "properties": {}, "geometry": {"type": "Point", "coordinates": [35.1897, 32.2763]}}, {"type": "Feature", "id": "http://data.archaeology.link/data/cigs/AHT", "name": "Ahtamar (AHT)", "dateprops": [], "properties": {}, "geometry": {"type": "Point", "coordinates": [43.037, 38.3401]}}, {"type": "Feature", "id": "http://data.archaeology.link/data/cigs/TBS", "name": "Tell Ba'arura Shargi (TBS)", "dateprops": [], "properties": {}, "geometry": {"type": "Point", "coordinates": [46.1685, 30.9786]}}, {"type": "Feature", "id": "http://data.archaeology.link/data/cigs/TEI", "name": "Teisheba (TEI)", "dateprops": [], "properties": {}, "geometry": {"type": "Point", "coordinates": [44.4509, 40.1529]}}, {"type": "Feature", "id": "http://data.archaeology.link/data/cigs/YEL", "name": "Yelkhi (YEL)", "dateprops": [], "properties": {}, "geometry": {"type": "Point", "coordinates": [45.0013, 34.2856]}}, {"type": "Feature", "id": "http://data.archaeology.link/data/cigs/DLB", "name": "Dilbat (DLB)", "dateprops": [], "properties": {}, "geometry": {"type": "Point", "coordinates": [44.4668, 32.2961]}}, {"type": "Feature", "id": "http://data.archaeology.link/data/cigs/DEF", "name": "K\u016bm Dafnah (DEF)", "dateprops": [], "properties": {}, "geometry": {"type": "Point", "coordinates": [32.1774, 30.8579]}}, {"type": "Feature", "id": "http://data.archaeology.link/data/cigs/ERN", "name": "Ererin (ERN)", "dateprops": [], "properties": {}, "geometry": {"type": "Point", "coordinates": [43.2462, 38.7579]}}, {"type": "Feature", "id": "http://data.archaeology.link/data/cigs/TBO", "name": "Tapah Barm\u012b (TBO)", "dateprops": [], "properties": {}, "geometry": {"type": "Point", "coordinates": [49.589, 31.2413]}}, {"type": "Feature", "id": "http://data.archaeology.link/data/cigs/KEL", "name": "Kal\u012bsh\u012bn (KEL)", "dateprops": [], "properties": {}, "geometry": {"type": "Point", "coordinates": [44.8994, 36.9171]}}, {"type": "Feature", "id": "http://data.archaeology.link/data/cigs/NIM", "name": "Kalhu (NIM)", "dateprops": [], "properties": {}, "geometry": {"type": "Point", "coordinates": [43.3385, 36.1022]}}, {"type": "Feature", "id": "http://data.archaeology.link/data/cigs/BYB", "name": "Gubla (BYB)", "dateprops": [], "properties": {}, "geometry": {"type": "Point", "coordinates": [35.646, 34.1191]}}, {"type": "Feature", "id": "http://data.archaeology.link/data/cigs/AVN", "name": "G\u00fczelhisar (AVN)", "dateprops": [], "properties": {}, "geometry": {"type": "Point", "coordinates": [41.9817, 39.8283]}}, {"type": "Feature", "id": "http://data.archaeology.link/data/cigs/JRD", "name": "Jabal \u2018\u0100r\u016bdah (JRD)", "dateprops": [], "properties": {}, "geometry": {"type": "Point", "coordinates": [38.0984, 36.2349]}}, {"type": "Feature", "id": "http://data.archaeology.link/data/cigs/KKL", "name": "Karakala (KKL)", "dateprops": [], "properties": {}, "geometry": {"type": "Point", "coordinates": [43.8488, 40.0487]}}, {"type": "Feature", "id": "http://data.archaeology.link/data/cigs/QIT", "name": "Tall al-Qi\u1e6dar (QIT)", "dateprops": [], "properties": {}, "geometry": {"type": "Point", "coordinates": [38.1803, 36.3837]}}, {"type": "Feature", "id": "http://data.archaeology.link/data/cigs/AYA", "name": "Rusaginili Eidurukai (AYA)", "dateprops": [], "properties": {}, "geometry": {"type": "Point", "coordinates": [43.2114, 38.7083]}}, {"type": "Feature", "id": "http://data.archaeology.link/data/cigs/QLD", "name": "Qalat-i Dinka (QLD)", "dateprops": [], "properties": {}, "geometry": {"type": "Point", "coordinates": [45.1328, 36.1367]}}, {"type": "Feature", "id": "http://data.archaeology.link/data/cigs/KHR", "name": "Al-Kharjah (KHR)", "dateprops": [], "properties": {}, "geometry": {"type": "Point", "coordinates": [30.5552, 25.4764]}}, {"type": "Feature", "id": "http://data.archaeology.link/data/cigs/SUN", "name": "S\u00fcng\u00fcta\u015f\u0131 (SUN)", "dateprops": [], "properties": {}, "geometry": {"type": "Point", "coordinates": [42.2432, 40.2139]}}, {"type": "Feature", "id": "http://data.archaeology.link/data/cigs/BAZ", "name": "Armanum? (BAZ)", "dateprops": [], "properties": {}, "geometry": {"type": "Point", "coordinates": [38.2762, 36.4273]}}, {"type": "Feature", "id": "http://data.archaeology.link/data/cigs/GUD", "name": "Gudua (GUD)", "dateprops": [], "properties": {}, "geometry": {"type": "Point", "coordinates": [44.6112, 32.7605]}}, {"type": "Feature", "id": "http://data.archaeology.link/data/cigs/MIT", "name": "Tall M\u012bthlay (MIT)", "dateprops": [], "properties": {}, "geometry": {"type": "Point", "coordinates": [42.1377, 36.7586]}}, {"type": "Feature", "id": "http://data.archaeology.link/data/cigs/TTA", "name": "Tall al-\u1e6c\u0101ya (TTA)", "dateprops": [], "properties": {}, "geometry": {"type": "Point", "coordinates": [42.4933, 36.3324]}}, {"type": "Feature", "id": "http://data.archaeology.link/data/cigs/FKR", "name": "Tall al-Fakh\u012briyah (FKR)", "dateprops": [], "properties": {}, "geometry": {"type": "Point", "coordinates": [40.0707, 36.8424]}}, {"type": "Feature", "id": "http://data.archaeology.link/data/cigs/TOP", "name": "Kocap\u0131nar (TOP)", "dateprops": [], "properties": {}, "geometry": {"type": "Point", "coordinates": [43.2021, 39.1002]}}, {"type": "Feature", "id": "http://data.archaeology.link/data/cigs/ZIW", "name": "\u0632\u06cc\u0648\u06cc\u0647 (ZIW)", "dateprops": [], "properties": {}, "geometry": {"type": "Point", "coordinates": [46.6879, 36.2739]}}, {"type": "Feature", "id": "http://data.archaeology.link/data/cigs/HAN", "name": "Tall Hanas (HAN)", "dateprops": [], "properties": {}, "geometry": {"type": "Point", "coordinates": [43.2896, 35.4368]}}, {"type": "Feature", "id": "http://data.archaeology.link/data/cigs/KAZ", "name": "Kazanc\u0131 (KAZ)", "dateprops": [], "properties": {}, "geometry": {"type": "Point", "coordinates": [44.0255, 40.0064]}}, {"type": "Feature", "id": "http://data.archaeology.link/data/cigs/HYK", "name": "\u00c7atal H\u00f6y\u00fck (HYK)", "dateprops": [], "properties": {}, "geometry": {"type": "Point", "coordinates": [36.5456, 36.2977]}}, {"type": "Feature", "id": "http://data.archaeology.link/data/cigs/TFA", "name": "\u1e2aabuba (TFA)", "dateprops": [], "properties": {}, "geometry": {"type": "Point", "coordinates": [43.4612, 35.2652]}}, {"type": "Feature", "id": "http://data.archaeology.link/data/cigs/ARU", "name": "Aruch (ARU)", "dateprops": [], "properties": {}, "geometry": {"type": "Point", "coordinates": [44.0784, 40.2865]}}, {"type": "Feature", "id": "http://data.archaeology.link/data/cigs/BSK", "name": "Ba\u015fkale (BSK)", "dateprops": [], "properties": {}, "geometry": {"type": "Point", "coordinates": [44.0171, 38.0448]}}, {"type": "Feature", "id": "http://data.archaeology.link/data/cigs/CPW", "name": "\u0686\u063a\u0627\u067e\u0647\u0646 (CPW)", "dateprops": [], "properties": {}, "geometry": {"type": "Point", "coordinates": [48.4862, 32.1851]}}, {"type": "Feature", "id": "http://data.archaeology.link/data/cigs/HAE", "name": "Hamamk\u00f6y (HAE)", "dateprops": [], "properties": {}, "geometry": {"type": "Point", "coordinates": [41.3538, 39.9056]}}, {"type": "Feature", "id": "http://data.archaeology.link/data/cigs/TBA", "name": "Tul\u016bl al-Baqar\u0101t (TBA)", "dateprops": [], "properties": {}, "geometry": {"type": "Point", "coordinates": [45.7239, 32.3361]}}, {"type": "Feature", "id": "http://data.archaeology.link/data/cigs/MHR", "name": "Meher Kap\u0131s\u0131 (MHR)", "dateprops": [], "properties": {}, "geometry": {"type": "Point", "coordinates": [43.3875, 38.5182]}}, {"type": "Feature", "id": "http://data.archaeology.link/data/cigs/PSG", "name": "\u067e\u0627\u0633\u0627\u0631\u06af\u0627\u062f (PSG)", "dateprops": [], "properties": {}, "geometry": {"type": "Point", "coordinates": [53.1768, 30.2008]}}, {"type": "Feature", "id": "http://data.archaeology.link/data/cigs/SHI", "name": "\u0160ibaniba (SHI)", "dateprops": [], "properties": {}, "geometry": {"type": "Point", "coordinates": [43.3481, 36.4335]}}, {"type": "Feature", "id": "http://data.archaeology.link/data/cigs/ALH", "name": "Ala\u00e7a H\u00f6yuk (ALH)", "dateprops": [], "properties": {}, "geometry": {"type": "Point", "coordinates": [34.6951, 40.2344]}}, {"type": "Feature", "id": "http://data.archaeology.link/data/cigs/GOV", "name": "G\u00f6velek (GOV)", "dateprops": [], "properties": {}, "geometry": {"type": "Point", "coordinates": [43.622, 38.5323]}}, {"type": "Feature", "id": "http://data.archaeology.link/data/cigs/MRD", "name": "Marad (MRD)", "dateprops": [], "properties": {}, "geometry": {"type": "Point", "coordinates": [44.7851, 32.0917]}}, {"type": "Feature", "id": "http://data.archaeology.link/data/cigs/NAS", "name": "Unknown (NAS)", "dateprops": [], "properties": {}, "geometry": {"type": "Point", "coordinates": [47.8013, 38.0076]}}, {"type": "Feature", "id": "http://data.archaeology.link/data/cigs/MCQ", "name": " (MCQ)", "dateprops": [], "properties": {}, "geometry": {"type": "Point", "coordinates": [45.3936, 32.149]}}, {"type": "Feature", "id": "http://data.archaeology.link/data/cigs/BDI", "name": "Dur-A\u0161\u0161ur-ketti-le\u0161er (BDI)", "dateprops": [], "properties": {}, "geometry": {"type": "Point", "coordinates": [40.8136, 36.3875]}}, {"type": "Feature", "id": "http://data.archaeology.link/data/cigs/KUS", "name": "Ku\u015fsaray (KUS)", "dateprops": [], "properties": {}, "geometry": {"type": "Point", "coordinates": [35.1154, 40.5733]}}, {"type": "Feature", "id": "http://data.archaeology.link/data/cigs/HDD", "name": "Me-Turran (HDD)", "dateprops": [], "properties": {}, "geometry": {"type": "Point", "coordinates": [45.0563, 34.1928]}}, {"type": "Feature", "id": "http://data.archaeology.link/data/cigs/SAL", "name": "Salmana\u011fa (SAL)", "dateprops": [], "properties": {}, "geometry": {"type": "Point", "coordinates": [43.4345, 39.0482]}}, {"type": "Feature", "id": "http://data.archaeology.link/data/cigs/CHU", "name": "\u1e2aarbe (CHU)", "dateprops": [], "properties": {}, "geometry": {"type": "Point", "coordinates": [39.4981, 36.6469]}}, {"type": "Feature", "id": "http://data.archaeology.link/data/cigs/KAS", "name": "Kastri (KAS)", "dateprops": [], "properties": {}, "geometry": {"type": "Point", "coordinates": [22.9979, 36.2584]}}, {"type": "Feature", "id": "http://data.archaeology.link/data/cigs/TAT", "name": "\u0637\u0627\u0633 \u062a\u067e\u0647 (TAT)", "dateprops": [], "properties": {}, "geometry": {"type": "Point", "coordinates": [45.5666, 37.0499]}}, {"type": "Feature", "id": "http://data.archaeology.link/data/cigs/TAG", "name": "Tall al-\u2018Ag\u0101miyya (TAG)", "dateprops": [], "properties": {}, "geometry": {"type": "Point", "coordinates": [43.4304, 35.2249]}}, {"type": "Feature", "id": "http://data.archaeology.link/data/cigs/BMB", "name": "Bambakajat (BMB)", "dateprops": [], "properties": {}, "geometry": {"type": "Point", "coordinates": [44.0183, 40.1029]}}, {"type": "Feature", "id": "http://data.archaeology.link/data/cigs/GHA", "name": "Tall al-Gharr\u0101n (GHA)", "dateprops": [], "properties": {}, "geometry": {"type": "Point", "coordinates": [44.4083, 32.6244]}}, {"type": "Feature", "id": "http://data.archaeology.link/data/cigs/BRM", "name": "Burmage\u00e7it (BRM)", "dateprops": [], "properties": {}, "geometry": {"type": "Point", "coordinates": [39.5429, 38.9714]}}, {"type": "Feature", "id": "http://data.archaeology.link/data/cigs/ADB", "name": "Adab (ADB)", "dateprops": [], "properties": {}, "geometry": {"type": "Point", "coordinates": [45.6233, 31.9509]}}, {"type": "Feature", "id": "http://data.archaeology.link/data/cigs/ZOH", "name": "\u0633\u0631 \u067e\u0644 \u0632\u0647\u0627\u0628 (ZOH)", "dateprops": [], "properties": {}, "geometry": {"type": "Point", "coordinates": [45.8692, 34.4633]}}, {"type": "Feature", "id": "http://data.archaeology.link/data/cigs/PIR", "name": "Pirabat (PIR)", "dateprops": [], "properties": {}, "geometry": {"type": "Point", "coordinates": [42.5843, 39.753]}}, {"type": "Feature", "id": "http://data.archaeology.link/data/cigs/ATB", "name": "Ab\u016b \u1e6cb\u012brah (ATB)", "dateprops": [], "properties": {}, "geometry": {"type": "Point", "coordinates": [46.2678, 30.9828]}}, {"type": "Feature", "id": "http://data.archaeology.link/data/cigs/XOC", "name": "Xocali (XOC)", "dateprops": [], "properties": {}, "geometry": {"type": "Point", "coordinates": [46.8015, 39.906]}}, {"type": "Feature", "id": "http://data.archaeology.link/data/cigs/TLL", "name": "Tul\u016bl al-Lak (TLL)", "dateprops": [], "properties": {}, "geometry": {"type": "Point", "coordinates": [43.2638, 36.2983]}}, {"type": "Feature", "id": "http://data.archaeology.link/data/cigs/HSC", "name": "Hasanc\u0131kl\u0131 (HSC)", "dateprops": [], "properties": {}, "geometry": {"type": "Point", "coordinates": [36.7917, 37.6127]}}, {"type": "Feature", "id": "http://data.archaeology.link/data/cigs/MRN", "name": "Mardin (MRN)", "dateprops": [], "properties": {}, "geometry": {"type": "Point", "coordinates": [40.7178, 37.3246]}}, {"type": "Feature", "id": "http://data.archaeology.link/data/cigs/EKY", "name": "Eskiyapar (EKY)", "dateprops": [], "properties": {}, "geometry": {"type": "Point", "coordinates": [34.773, 40.1581]}}, {"type": "Feature", "id": "http://data.archaeology.link/data/cigs/USH", "name": "Ushakl\u0131 Ho\u0308yu\u0308k (USH)", "dateprops": [], "properties": {}, "geometry": {"type": "Point", "coordinates": [35.0525, 39.813]}}, {"type": "Feature", "id": "http://data.archaeology.link/data/cigs/KUN", "name": "K\u016bn\u0101r\u0101 (KUN)", "dateprops": [], "properties": {}, "geometry": {"type": "Point", "coordinates": [45.3594, 35.5192]}}, {"type": "Feature", "id": "http://data.archaeology.link/data/cigs/SAM", "name": "Sham\u012bt (SAM)", "dateprops": [], "properties": {}, "geometry": {"type": "Point", "coordinates": [45.8326, 31.7477]}}, {"type": "Feature", "id": "http://data.archaeology.link/data/cigs/TNP", "name": "Tunip (TNP)", "dateprops": [], "properties": {}, "geometry": {"type": "Point", "coordinates": [36.3959, 35.2877]}}, {"type": "Feature", "id": "http://data.archaeology.link/data/cigs/TLB", "name": "Tilbes H\u00f6y\u00fck (TLB)", "dateprops": [], "properties": {}, "geometry": {"type": "Point", "coordinates": [37.8735, 37.0886]}}, {"type": "Feature", "id": "http://data.archaeology.link/data/cigs/AMM", "name": "Ma\u1e6d\u0101r \u2018Amm\u0101n al-Madan\u012b (AMM)", "dateprops": [], "properties": {}, "geometry": {"type": "Point", "coordinates": [35.9813, 31.9713]}}, {"type": "Feature", "id": "http://data.archaeology.link/data/cigs/SHZ", "name": "Sar\u0131ca (SHZ)", "dateprops": [], "properties": {}, "geometry": {"type": "Point", "coordinates": [40.4981, 37.0445]}}, {"type": "Feature", "id": "http://data.archaeology.link/data/cigs/UWW", "name": "Umm al-Wawiya (UWW)", "dateprops": [], "properties": {}, "geometry": {"type": "Point", "coordinates": [45.7626, 31.2613]}}, {"type": "Feature", "id": "http://data.archaeology.link/data/cigs/KAB", "name": "Kabr\u012bt (KAB)", "dateprops": [], "properties": {}, "geometry": {"type": "Point", "coordinates": [32.4914, 30.2285]}}, {"type": "Feature", "id": "http://data.archaeology.link/data/cigs/SMH", "name": "Ish\u0101n al-Sama\u2018a (SMH)", "dateprops": [], "properties": {}, "geometry": {"type": "Point", "coordinates": [45.4193, 32.0725]}}, {"type": "Feature", "id": "http://data.archaeology.link/data/cigs/PDK", "name": "Padakku (PDK)", "dateprops": [], "properties": {}, "geometry": {"type": "Point", "coordinates": [40.4668, 25.9786]}}, {"type": "Feature", "id": "http://data.archaeology.link/data/cigs/MAV", "name": "\u0645\u0648\u0627\u0646\u0627 (MAV)", "dateprops": [], "properties": {}, "geometry": {"type": "Point", "coordinates": [44.7952, 37.5734]}}, {"type": "Feature", "id": "http://data.archaeology.link/data/cigs/BTU", "name": "Kebeli (BTU)", "dateprops": [], "properties": {}, "geometry": {"type": "Point", "coordinates": [42.0279, 37.1876]}}, {"type": "Feature", "id": "http://data.archaeology.link/data/cigs/QDS", "name": "Qade\u0161 (QDS)", "dateprops": [], "properties": {}, "geometry": {"type": "Point", "coordinates": [36.5194, 34.557]}}, {"type": "Feature", "id": "http://data.archaeology.link/data/cigs/YSJ", "name": "Y\u0101s\u016bj (YSJ)", "dateprops": [], "properties": {}, "geometry": {"type": "Point", "coordinates": [51.5796, 30.6673]}}, {"type": "Feature", "id": "http://data.archaeology.link/data/cigs/SCH", "name": "\u05e9\u05b0\u05c1\u05db\u05b8\u05dd (SCH)", "dateprops": [], "properties": {}, "geometry": {"type": "Point", "coordinates": [35.2827, 32.2135]}}, {"type": "Feature", "id": "http://data.archaeology.link/data/cigs/ALA", "name": "Alalah (ALA)", "dateprops": [], "properties": {}, "geometry": {"type": "Point", "coordinates": [36.3842, 36.2377]}}, {"type": "Feature", "id": "http://data.archaeology.link/data/cigs/TDU", "name": "Taidu (TDU)", "dateprops": [], "properties": {}, "geometry": {"type": "Point", "coordinates": [41.166, 36.816]}}, {"type": "Feature", "id": "http://data.archaeology.link/data/cigs/DRE", "name": "Puzri\u0161-Dagan (DRE)", "dateprops": [], "properties": {}, "geometry": {"type": "Point", "coordinates": [45.2922, 32.0591]}}, {"type": "Feature", "id": "http://data.archaeology.link/data/cigs/VAN", "name": "Turuspa (VAN)", "dateprops": [], "properties": {}, "geometry": {"type": "Point", "coordinates": [43.3397, 38.5011]}}, {"type": "Feature", "id": "http://data.archaeology.link/data/cigs/QTN", "name": "Qa\u1e6dn\u0101 (QTN)", "dateprops": [], "properties": {}, "geometry": {"type": "Point", "coordinates": [36.8663, 34.8346]}}, {"type": "Feature", "id": "http://data.archaeology.link/data/cigs/KSM", "name": "Kas\u0131mo\u011flu (KSM)", "dateprops": [], "properties": {}, "geometry": {"type": "Point", "coordinates": [43.415, 38.6846]}}, {"type": "Feature", "id": "http://data.archaeology.link/data/cigs/ORD", "name": "Ortadamla (ORD)", "dateprops": [], "properties": {}, "geometry": {"type": "Point", "coordinates": [43.0496, 39.2058]}}, {"type": "Feature", "id": "http://data.archaeology.link/data/cigs/SDP", "name": "\u0160adupp\u00fbm (SDP)", "dateprops": [], "properties": {}, "geometry": {"type": "Point", "coordinates": [44.4666, 33.3098]}}, {"type": "Feature", "id": "http://data.archaeology.link/data/cigs/KKA", "name": "Kawala Kandal (KKA)", "dateprops": [], "properties": {}, "geometry": {"type": "Point", "coordinates": [43.6532, 35.8079]}}, {"type": "Feature", "id": "http://data.archaeology.link/data/cigs/THY", "name": "Tilmen H\u00f6y\u00fck (THY)", "dateprops": [], "properties": {}, "geometry": {"type": "Point", "coordinates": [36.7037, 37.0302]}}, {"type": "Feature", "id": "http://data.archaeology.link/data/cigs/BST", "name": "\u0642\u0644\u0639\u0647 \u0628\u0633\u067c (BST)", "dateprops": [], "properties": {}, "geometry": {"type": "Point", "coordinates": [64.3566, 31.5081]}}, {"type": "Feature", "id": "http://data.archaeology.link/data/cigs/LAR", "name": "Larsa (LAR)", "dateprops": [], "properties": {}, "geometry": {"type": "Point", "coordinates": [45.8549, 31.2832]}}, {"type": "Feature", "id": "http://data.archaeology.link/data/cigs/BUR", "name": "Burmarina (BUR)", "dateprops": [], "properties": {}, "geometry": {"type": "Point", "coordinates": [38.0359, 36.7875]}}, {"type": "Feature", "id": "http://data.archaeology.link/data/cigs/MSK", "name": "Ma\u0161kan-\u0161apir (MSK)", "dateprops": [], "properties": {}, "geometry": {"type": "Point", "coordinates": [45.2207, 32.4055]}}, {"type": "Feature", "id": "http://data.archaeology.link/data/cigs/DEY", "name": "\u062a\u067e\u0647 \u062f\u06cc\u0644\u0645 (DEY)", "dateprops": [], "properties": {}, "geometry": {"type": "Point", "coordinates": [48.4262, 32.1672]}}, {"type": "Feature", "id": "http://data.archaeology.link/data/cigs/MQS", "name": "Al-Maqsha (MQS)", "dateprops": [], "properties": {}, "geometry": {"type": "Point", "coordinates": [50.5112, 26.2198]}}, {"type": "Feature", "id": "http://data.archaeology.link/data/cigs/EHA", "name": "Eskiharran (EHA)", "dateprops": [], "properties": {}, "geometry": {"type": "Point", "coordinates": [39.059, 36.9336]}}, {"type": "Feature", "id": "http://data.archaeology.link/data/cigs/MSH", "name": "Kar-Assurnazirpal (MSH)", "dateprops": [], "properties": {}, "geometry": {"type": "Point", "coordinates": [40.5553, 34.9738]}}, {"type": "Feature", "id": "http://data.archaeology.link/data/cigs/KLK", "name": "Kalek\u00f6y (KLK)", "dateprops": [], "properties": {}, "geometry": {"type": "Point", "coordinates": [39.6584, 39.0253]}}, {"type": "Feature", "id": "http://data.archaeology.link/data/cigs/BZM", "name": "Tall B\u0101z Musiy\u0101n (BZM)", "dateprops": [], "properties": {}, "geometry": {"type": "Point", "coordinates": [44.9243, 36.1614]}}, {"type": "Feature", "id": "http://data.archaeology.link/data/cigs/SWS", "name": "Sa\u2018ad wa Sa\u2018ayd (SWS)", "dateprops": [], "properties": {}, "geometry": {"type": "Point", "coordinates": [48.2779, 29.4303]}}, {"type": "Feature", "id": "http://data.archaeology.link/data/cigs/FRU", "name": "\u062a\u067e\u0647 \u0641\u0631\u062e\u0622\u0628\u0627\u062f (FRU)", "dateprops": [], "properties": {}, "geometry": {"type": "Point", "coordinates": [47.2246, 32.5873]}}, {"type": "Feature", "id": "http://data.archaeology.link/data/cigs/SIT", "name": "Tall S\u012btak (SIT)", "dateprops": [], "properties": {}, "geometry": {"type": "Point", "coordinates": [45.5027, 35.6419]}}, {"type": "Feature", "id": "http://data.archaeology.link/data/cigs/JOR", "name": "Tul-i \u0100juri (JOR)", "dateprops": [], "properties": {}, "geometry": {"type": "Point", "coordinates": [52.8549, 29.9364]}}, {"type": "Feature", "id": "http://data.archaeology.link/data/cigs/RTA", "name": "Rasm al-\u1e6canjara (RTA)", "dateprops": [], "properties": {}, "geometry": {"type": "Point", "coordinates": [36.3562, 35.5872]}}, {"type": "Feature", "id": "http://data.archaeology.link/data/cigs/URB", "name": "Q\u0101`lah Arb\u012bl (URB)", "dateprops": [], "properties": {}, "geometry": {"type": "Point", "coordinates": [44.0093, 36.1913]}}, {"type": "Feature", "id": "http://data.archaeology.link/data/cigs/TSA", "name": "Tall Saka (TSA)", "dateprops": [], "properties": {}, "geometry": {"type": "Point", "coordinates": [36.4682, 33.4402]}}, {"type": "Feature", "id": "http://data.archaeology.link/data/cigs/HRT", "name": "Har\u0101t (HRT)", "dateprops": [], "properties": {}, "geometry": {"type": "Point", "coordinates": [62.1899, 34.3453]}}, {"type": "Feature", "id": "http://data.archaeology.link/data/cigs/TEM", "name": "Tall al-Maskh\u016b\u1e6da (TEM)", "dateprops": [], "properties": {}, "geometry": {"type": "Point", "coordinates": [32.1002, 30.5539]}}, {"type": "Feature", "id": "http://data.archaeology.link/data/cigs/HAM", "name": "Hamath (HAM)", "dateprops": [], "properties": {}, "geometry": {"type": "Point", "coordinates": [36.7479, 35.131]}}, {"type": "Feature", "id": "http://data.archaeology.link/data/cigs/LSB", "name": "Tall al-S\u012bb (LSB)", "dateprops": [], "properties": {}, "geometry": {"type": "Point", "coordinates": [45.058, 34.1929]}}, {"type": "Feature", "id": "http://data.archaeology.link/data/cigs/BTM", "name": "\u0628\u0633\u0637\u0627\u0645 (BTM)", "dateprops": [], "properties": {}, "geometry": {"type": "Point", "coordinates": [44.9473, 38.8859]}}, {"type": "Feature", "id": "http://data.archaeology.link/data/cigs/AIR", "name": "\u0639\u06cc\u0646 \u0627\u0644\u0631\u0648\u0645 (AIR)", "dateprops": [], "properties": {}, "geometry": {"type": "Point", "coordinates": [45.132, 37.1837]}}, {"type": "Feature", "id": "http://data.archaeology.link/data/cigs/DOH", "name": "D\u0101huk (DOH)", "dateprops": [], "properties": {}, "geometry": {"type": "Point", "coordinates": [42.9205, 36.8623]}}, {"type": "Feature", "id": "http://data.archaeology.link/data/cigs/TMH", "name": "Tall Mu\u1e25amad (TMH)", "dateprops": [], "properties": {}, "geometry": {"type": "Point", "coordinates": [44.4681, 33.3009]}}, {"type": "Feature", "id": "http://data.archaeology.link/data/cigs/BSH", "name": "\u05d1\u05df \u05e9\u05de\u05df (BSH)", "dateprops": [], "properties": {}, "geometry": {"type": "Point", "coordinates": [34.9206, 31.9535]}}, {"type": "Feature", "id": "http://data.archaeology.link/data/cigs/FDW", "name": "\u0627\u0628\u0648 \u0641\u0646\u062f\u0648\u0627 (FDW)", "dateprops": [], "properties": {}, "geometry": {"type": "Point", "coordinates": [48.3164, 32.0941]}}, {"type": "Feature", "id": "http://data.archaeology.link/data/cigs/UQA", "name": "Tall \u02bbUqair (UQA)", "dateprops": [], "properties": {}, "geometry": {"type": "Point", "coordinates": [44.6643, 32.7817]}}, {"type": "Feature", "id": "http://data.archaeology.link/data/cigs/TLH", "name": "Tall al-La\u1e25am (TLH)", "dateprops": [], "properties": {}, "geometry": {"type": "Point", "coordinates": [45.4062, 32.0509]}}, {"type": "Feature", "id": "http://data.archaeology.link/data/cigs/MLH", "name": "Tall Iml\u012b\u1e25iyah (MLH)", "dateprops": [], "properties": {}, "geometry": {"type": "Point", "coordinates": [45.0031, 34.1961]}}, {"type": "Feature", "id": "http://data.archaeology.link/data/cigs/TFQ", "name": "Tall Faq\u016bs (TFQ)", "dateprops": [], "properties": {}, "geometry": {"type": "Point", "coordinates": [38.2052, 35.9372]}}, {"type": "Feature", "id": "http://data.archaeology.link/data/cigs/TOD", "name": "\u1e6c\u016bd (TOD)", "dateprops": [], "properties": {}, "geometry": {"type": "Point", "coordinates": [32.5332, 25.5832]}}, {"type": "Feature", "id": "http://data.archaeology.link/data/cigs/WRS", "name": "Tall War\u012bsh (WRS)", "dateprops": [], "properties": {}, "geometry": {"type": "Point", "coordinates": [45.3421, 32.1834]}}, {"type": "Feature", "id": "http://data.archaeology.link/data/cigs/TEG", "name": "\u062a\u0648\u0644 \u06af\u06cc\u0644\u0627\u0646 (TEG)", "dateprops": [], "properties": {}, "geometry": {"type": "Point", "coordinates": [48.6069, 37.7352]}}, {"type": "Feature", "id": "http://data.archaeology.link/data/cigs/JDG", "name": "Cudi Da\u011f\u0131 (JDG)", "dateprops": [], "properties": {}, "geometry": {"type": "Point", "coordinates": [42.3668, 37.3838]}}, {"type": "Feature", "id": "http://data.archaeology.link/data/cigs/NKM", "name": "\u041d\u043e\u0432\u044b\u0439 \u041a\u0443\u043c\u0430\u043a (NKM)", "dateprops": [], "properties": {}, "geometry": {"type": "Point", "coordinates": [58.6555, 51.2297]}}, {"type": "Feature", "id": "http://data.archaeology.link/data/cigs/QUF", "name": "Quf\u1e6d (QUF)", "dateprops": [], "properties": {}, "geometry": {"type": "Point", "coordinates": [32.8158, 25.9966]}}, {"type": "Feature", "id": "http://data.archaeology.link/data/cigs/KZK", "name": "Kizkapanl\u0131 (KZK)", "dateprops": [], "properties": {}, "geometry": {"type": "Point", "coordinates": [37.285, 37.395]}}, {"type": "Feature", "id": "http://data.archaeology.link/data/cigs/HSK", "name": "Hasankeyf (HSK)", "dateprops": [], "properties": {}, "geometry": {"type": "Point", "coordinates": [41.4137, 37.7137]}}, {"type": "Feature", "id": "http://data.archaeology.link/data/cigs/TTB", "name": "Tutub (TTB)", "dateprops": [], "properties": {}, "geometry": {"type": "Point", "coordinates": [44.5559, 33.3554]}}, {"type": "Feature", "id": "http://data.archaeology.link/data/cigs/CHR", "name": "Ir\u00e1kleio (CHR)", "dateprops": [], "properties": {}, "geometry": {"type": "Point", "coordinates": [25.1332, 35.3402]}}, {"type": "Feature", "id": "http://data.archaeology.link/data/cigs/HAB", "name": "Hab\u0131bu\u015fa\u01e7\u0131 (HAB)", "dateprops": [], "properties": {}, "geometry": {"type": "Point", "coordinates": [38.7937, 38.4334]}}, {"type": "Feature", "id": "http://data.archaeology.link/data/cigs/MOA", "name": "Tall Mu\u1e25amad \u2018Arab (MOA)", "dateprops": [], "properties": {}, "geometry": {"type": "Point", "coordinates": [42.8893, 36.6346]}}, {"type": "Feature", "id": "http://data.archaeology.link/data/cigs/BHN", "name": "Ban\u0101t al-Hassan (BHN)", "dateprops": [], "properties": {}, "geometry": {"type": "Point", "coordinates": [45.5218, 31.5757]}}, {"type": "Feature", "id": "http://data.archaeology.link/data/cigs/SJR", "name": "Sur Jar'a (SJR)", "dateprops": [], "properties": {}, "geometry": {"type": "Point", "coordinates": [42.1939, 34.3072]}}, {"type": "Feature", "id": "http://data.archaeology.link/data/cigs/ERI", "name": "Eridu (ERI)", "dateprops": [], "properties": {}, "geometry": {"type": "Point", "coordinates": [45.9962, 30.8169]}}, {"type": "Feature", "id": "http://data.archaeology.link/data/cigs/HIL", "name": "Al-\u1e24ilah (HIL)", "dateprops": [], "properties": {}, "geometry": {"type": "Point", "coordinates": [44.4361, 32.4844]}}, {"type": "Feature", "id": "http://data.archaeology.link/data/cigs/WIN", "name": "\u05d5\u05d9\u05e0\u05d2\u05d9\u05d9\u05d8 (WIN)", "dateprops": [], "properties": {}, "geometry": {"type": "Point", "coordinates": [34.8349, 32.2616]}}, {"type": "Feature", "id": "http://data.archaeology.link/data/cigs/WLS", "name": "W\u0101d\u012b al-Sab` (WLS)", "dateprops": [], "properties": {}, "geometry": {"type": "Point", "coordinates": [36.349, 34.5518]}}, {"type": "Feature", "id": "http://data.archaeology.link/data/cigs/MKA", "name": "Unknown (MKA)", "dateprops": [], "properties": {}, "geometry": {"type": "Point", "coordinates": [44.9669, 36.9425]}}, {"type": "Feature", "id": "http://data.archaeology.link/data/cigs/NAZ", "name": "Anaz (NAZ)", "dateprops": [], "properties": {}, "geometry": {"type": "Point", "coordinates": [39.027, 37.14]}}, {"type": "Feature", "id": "http://data.archaeology.link/data/cigs/ESH", "name": "E\u0161nuna (ESH)", "dateprops": [], "properties": {}, "geometry": {"type": "Point", "coordinates": [44.7276, 33.4837]}}, {"type": "Feature", "id": "http://data.archaeology.link/data/cigs/NRK", "name": "Namr\u012bk (NRK)", "dateprops": [], "properties": {}, "geometry": {"type": "Point", "coordinates": [42.8822, 36.7241]}}, {"type": "Feature", "id": "http://data.archaeology.link/data/cigs/UCH", "name": "Tall al-Maj\u0101til (UCH)", "dateprops": [], "properties": {}, "geometry": {"type": "Point", "coordinates": [46.5784, 31.3901]}}, {"type": "Feature", "id": "http://data.archaeology.link/data/cigs/KMS", "name": "Kam\u0131\u015fvan (KMS)", "dateprops": [], "properties": {}, "geometry": {"type": "Point", "coordinates": [42.9701, 39.2345]}}, {"type": "Feature", "id": "http://data.archaeology.link/data/cigs/TTU", "name": "Dicle T\u00fcneli (TTU)", "dateprops": [], "properties": {}, "geometry": {"type": "Point", "coordinates": [40.549, 38.5291]}}, {"type": "Feature", "id": "http://data.archaeology.link/data/cigs/TIJ", "name": "Tall \u2018Atij (TIJ)", "dateprops": [], "properties": {}, "geometry": {"type": "Point", "coordinates": [40.8644, 36.4303]}}, {"type": "Feature", "id": "http://data.archaeology.link/data/cigs/NSB", "name": "\u05ea\u05dc \u05d0\u05e0\u05e6\u05d1\u05d4 (NSB)", "dateprops": [], "properties": {}, "geometry": {"type": "Point", "coordinates": [35.2166, 31.8851]}}, {"type": "Feature", "id": "http://data.archaeology.link/data/cigs/GUG", "name": "G\u00fcganis (GUG)", "dateprops": [], "properties": {}, "geometry": {"type": "Point", "coordinates": [43.22, 38.3347]}}, {"type": "Feature", "id": "http://data.archaeology.link/data/cigs/YES", "name": "Ye\u015fila\u011fa\u00e7 (YES)", "dateprops": [], "properties": {}, "geometry": {"type": "Point", "coordinates": [44.0205, 38.4386]}}, {"type": "Feature", "id": "http://data.archaeology.link/data/cigs/QBR", "name": "Tall Ab\u016b Qubur (QBR)", "dateprops": [], "properties": {}, "geometry": {"type": "Point", "coordinates": [44.2185, 33.1455]}}, {"type": "Feature", "id": "http://data.archaeology.link/data/cigs/EKA", "name": "Ekalte (EKA)", "dateprops": [], "properties": {}, "geometry": {"type": "Point", "coordinates": [38.1298, 36.2182]}}, {"type": "Feature", "id": "http://data.archaeology.link/data/cigs/MUH", "name": "Muhrapert (MUH)", "dateprops": [], "properties": {}, "geometry": {"type": "Point", "coordinates": [42.9157, 38.3461]}}, {"type": "Feature", "id": "http://data.archaeology.link/data/cigs/ZAB", "name": "Zabalam (ZAB)", "dateprops": [], "properties": {}, "geometry": {"type": "Point", "coordinates": [45.8749, 31.7436]}}, {"type": "Feature", "id": "http://data.archaeology.link/data/cigs/KEV", "name": "Kevenli (KEV)", "dateprops": [], "properties": {}, "geometry": {"type": "Point", "coordinates": [43.4475, 38.4746]}}, {"type": "Feature", "id": "http://data.archaeology.link/data/cigs/SOK", "name": "\u0634\u0647\u0631 \u0633\u0648\u062e\u062a\u0647 (SOK)", "dateprops": [], "properties": {}, "geometry": {"type": "Point", "coordinates": [61.328, 30.5961]}}, {"type": "Feature", "id": "http://data.archaeology.link/data/cigs/TBP", "name": "Tall A\u1e25mar (TBP)", "dateprops": [], "properties": {}, "geometry": {"type": "Point", "coordinates": [38.1209, 36.6743]}}, {"type": "Feature", "id": "http://data.archaeology.link/data/cigs/IRS", "name": "Irisagrig (IRS)", "dateprops": [], "properties": {}, "geometry": {"type": "Point", "coordinates": [45.3689, 32.1529]}}, {"type": "Feature", "id": "http://data.archaeology.link/data/cigs/UPI", "name": "Upi (UPI)", "dateprops": [], "properties": {}, "geometry": {"type": "Point", "coordinates": [44.7014, 33.1844]}}, {"type": "Feature", "id": "http://data.archaeology.link/data/cigs/THR", "name": "\u1e6c\u016bz Kh\u016brm\u0101t\u016b (THR)", "dateprops": [], "properties": {}, "geometry": {"type": "Point", "coordinates": [44.6252, 34.884]}}, {"type": "Feature", "id": "http://data.archaeology.link/data/cigs/SPA", "name": "Spandaryan (SPA)", "dateprops": [], "properties": {}, "geometry": {"type": "Point", "coordinates": [44.0205, 40.6679]}}, {"type": "Feature", "id": "http://data.archaeology.link/data/cigs/JAV", "name": "\u062c\u0648\u0627\u0646 \u0642\u0644\u0639\u0647 (JAV)", "dateprops": [], "properties": {}, "geometry": {"type": "Point", "coordinates": [45.9564, 37.4913]}}, {"type": "Feature", "id": "http://data.archaeology.link/data/cigs/TSO", "name": "\u062a\u067e\u0647 \u0633\u0641\u0627\u0644\u06cc\u0646 (TSO)", "dateprops": [], "properties": {}, "geometry": {"type": "Point", "coordinates": [51.7366, 35.3161]}}, {"type": "Feature", "id": "http://data.archaeology.link/data/cigs/TAF", "name": "\u062a\u0644 \u0627\u0641\u063a\u0627\u0646\u064a\u200e (TAF)", "dateprops": [], "properties": {}, "geometry": {"type": "Point", "coordinates": [51.1321, 31.4883]}}, {"type": "Feature", "id": "http://data.archaeology.link/data/cigs/ZVA", "name": "Zvart\u02bbnots\u02bb (ZVA)", "dateprops": [], "properties": {}, "geometry": {"type": "Point", "coordinates": [44.3366, 40.1596]}}, {"type": "Feature", "id": "http://data.archaeology.link/data/cigs/HMR", "name": "Sulaiymah (HMR)", "dateprops": [], "properties": {}, "geometry": {"type": "Point", "coordinates": [45.1034, 34.1677]}}, {"type": "Feature", "id": "http://data.archaeology.link/data/cigs/BBK", "name": "Ba\u015fbulak (BBK)", "dateprops": [], "properties": {}, "geometry": {"type": "Point", "coordinates": [44.2549, 39.9374]}}, {"type": "Feature", "id": "http://data.archaeology.link/data/cigs/AKH", "name": "Akhetaten (AKH)", "dateprops": [], "properties": {}, "geometry": {"type": "Point", "coordinates": [30.8959, 27.64]}}, {"type": "Feature", "id": "http://data.archaeology.link/data/cigs/CSA", "name": "\u0686\u063a\u0627 \u0633\u0628\u0632 (CSA)", "dateprops": [], "properties": {}, "geometry": {"type": "Point", "coordinates": [47.3953, 33.3179]}}, {"type": "Feature", "id": "http://data.archaeology.link/data/cigs/KRM", "name": "\u06a9\u0631\u0645\u0627\u0646\u0634\u0627\u0647\u200e (KRM)", "dateprops": [], "properties": {}, "geometry": {"type": "Point", "coordinates": [47.0649, 34.314]}}, {"type": "Feature", "id": "http://data.archaeology.link/data/cigs/NUZ", "name": "Gasur (NUZ)", "dateprops": [], "properties": {}, "geometry": {"type": "Point", "coordinates": [44.2546, 35.3717]}}, {"type": "Feature", "id": "http://data.archaeology.link/data/cigs/MZT", "name": "Mezraa Teleilat (MZT)", "dateprops": [], "properties": {}, "geometry": {"type": "Point", "coordinates": [37.9859, 36.9773]}}, {"type": "Feature", "id": "http://data.archaeology.link/data/cigs/MLD", "name": "Melid (MLD)", "dateprops": [], "properties": {}, "geometry": {"type": "Point", "coordinates": [38.3612, 38.382]}}, {"type": "Feature", "id": "http://data.archaeology.link/data/cigs/HAR", "name": "Harran (HAR)", "dateprops": [], "properties": {}, "geometry": {"type": "Point", "coordinates": [39.0309, 36.8634]}}, {"type": "Feature", "id": "http://data.archaeology.link/data/cigs/TAY", "name": "Tall \u1e6ca\u2018iyn\u0101t (TAY)", "dateprops": [], "properties": {}, "geometry": {"type": "Point", "coordinates": [36.3759, 36.2482]}}, {"type": "Feature", "id": "http://data.archaeology.link/data/cigs/ARR", "name": "Arrapha (ARR)", "dateprops": [], "properties": {}, "geometry": {"type": "Point", "coordinates": [44.3957, 35.4701]}}, {"type": "Feature", "id": "http://data.archaeology.link/data/cigs/TYR", "name": "\u1e62\u016br (TYR)", "dateprops": [], "properties": {}, "geometry": {"type": "Point", "coordinates": [35.1943, 33.2706]}}, {"type": "Feature", "id": "http://data.archaeology.link/data/cigs/BAL", "name": "Ba\u011fin (BAL)", "dateprops": [], "properties": {}, "geometry": {"type": "Point", "coordinates": [39.9002, 39.0034]}}, {"type": "Feature", "id": "http://data.archaeology.link/data/cigs/BAW", "name": "Bakr \u0100w\u0101 (BAW)", "dateprops": [], "properties": {}, "geometry": {"type": "Point", "coordinates": [45.9403, 35.2215]}}, {"type": "Feature", "id": "http://data.archaeology.link/data/cigs/KSK", "name": "\u0160ari\u0161\u0161a (KSK)", "dateprops": [], "properties": {}, "geometry": {"type": "Point", "coordinates": [36.9096, 39.3084]}}, {"type": "Feature", "id": "http://data.archaeology.link/data/cigs/QSH", "name": "Kilizu (QSH)", "dateprops": [], "properties": {}, "geometry": {"type": "Point", "coordinates": [43.7514, 36.1039]}}, {"type": "Feature", "id": "http://data.archaeology.link/data/cigs/EMR", "name": "Emar (EMR)", "dateprops": [], "properties": {}, "geometry": {"type": "Point", "coordinates": [38.1126, 35.9876]}}, {"type": "Feature", "id": "http://data.archaeology.link/data/cigs/VAR", "name": "Vardatsor (VAR)", "dateprops": [], "properties": {}, "geometry": {"type": "Point", "coordinates": [45.193, 40.1888]}}, {"type": "Feature", "id": "http://data.archaeology.link/data/cigs/HWS", "name": "Ubas\u0113 (HWS)", "dateprops": [], "properties": {}, "geometry": {"type": "Point", "coordinates": [43.2304, 35.5931]}}, {"type": "Feature", "id": "http://data.archaeology.link/data/cigs/ALT", "name": "Alt\u0131ntepe (ALT)", "dateprops": [], "properties": {}, "geometry": {"type": "Point", "coordinates": [39.6467, 39.6964]}}, {"type": "Feature", "id": "http://data.archaeology.link/data/cigs/TSB", "name": "Tall Sab\u0101 (TSB)", "dateprops": [], "properties": {}, "geometry": {"type": "Point", "coordinates": [44.7514, 33.4638]}}, {"type": "Feature", "id": "http://data.archaeology.link/data/cigs/BAR", "name": "Girumu (BAR)", "dateprops": [], "properties": {}, "geometry": {"type": "Point", "coordinates": [44.7947, 32.7029]}}, {"type": "Feature", "id": "http://data.archaeology.link/data/cigs/OJA", "name": "Ojasar-Ilanda\u011f (OJA)", "dateprops": [], "properties": {}, "geometry": {"type": "Point", "coordinates": [45.6251, 39.137]}}, {"type": "Feature", "id": "http://data.archaeology.link/data/cigs/TSI", "name": "Tapah S\u012byalk (TSI)", "dateprops": [], "properties": {}, "geometry": {"type": "Point", "coordinates": [51.4042, 33.9688]}}, {"type": "Feature", "id": "http://data.archaeology.link/data/cigs/ELA", "name": "Elar (ELA)", "dateprops": [], "properties": {}, "geometry": {"type": "Point", "coordinates": [44.6168, 40.2681]}}, {"type": "Feature", "id": "http://data.archaeology.link/data/cigs/MDB", "name": "Azamhul (MDB)", "dateprops": [], "properties": {}, "geometry": {"type": "Point", "coordinates": [41.5642, 36.9243]}}, {"type": "Feature", "id": "http://data.archaeology.link/data/cigs/MUG", "name": "Mukdan (MUG)", "dateprops": [], "properties": {}, "geometry": {"type": "Point", "coordinates": [44.8501, 32.6497]}}, {"type": "Feature", "id": "http://data.archaeology.link/data/cigs/MMG", "name": "Mila Mergi (MMG)", "dateprops": [], "properties": {}, "geometry": {"type": "Point", "coordinates": [42.9136, 37.006]}}, {"type": "Feature", "id": "http://data.archaeology.link/data/cigs/HAT", "name": "\u1e2aattusa (HAT)", "dateprops": [], "properties": {}, "geometry": {"type": "Point", "coordinates": [34.6164, 40.0144]}}, {"type": "Feature", "id": "http://data.archaeology.link/data/cigs/KFK", "name": "Kef Kalesi (KFK)", "dateprops": [], "properties": {}, "geometry": {"type": "Point", "coordinates": [42.7191, 38.8334]}}, {"type": "Feature", "id": "http://data.archaeology.link/data/cigs/NER", "name": "Nereb (NER)", "dateprops": [], "properties": {}, "geometry": {"type": "Point", "coordinates": [37.2265, 36.1777]}}, {"type": "Feature", "id": "http://data.archaeology.link/data/cigs/NHV", "name": "Nih\u0101wand (NHV)", "dateprops": [], "properties": {}, "geometry": {"type": "Point", "coordinates": [48.3769, 34.1889]}}, {"type": "Feature", "id": "http://data.archaeology.link/data/cigs/KAH", "name": "Marqasi (KAH)", "dateprops": [], "properties": {}, "geometry": {"type": "Point", "coordinates": [36.9253, 37.587]}}, {"type": "Feature", "id": "http://data.archaeology.link/data/cigs/KZN", "name": "Kazane H\u00f6y\u00fck (KZN)", "dateprops": [], "properties": {}, "geometry": {"type": "Point", "coordinates": [38.846, 37.1196]}}, {"type": "Feature", "id": "http://data.archaeology.link/data/cigs/MRJ", "name": "Al-Marjab (MRJ)", "dateprops": [], "properties": {}, "geometry": {"type": "Point", "coordinates": [46.1575, 30.8627]}}, {"type": "Feature", "id": "http://data.archaeology.link/data/cigs/ARA", "name": "Aras (ARA)", "dateprops": [], "properties": {}, "geometry": {"type": "Point", "coordinates": [42.3081, 39.9893]}}, {"type": "Feature", "id": "http://data.archaeology.link/data/cigs/SPI", "name": "\u062a\u0644\u200c\u0627\u0633\u067e\u06cc\u062f (SPI)", "dateprops": [], "properties": {}, "geometry": {"type": "Point", "coordinates": [51.4845, 30.2519]}}, {"type": "Feature", "id": "http://data.archaeology.link/data/cigs/YAR", "name": "Tall Y\u0101rah (YAR)", "dateprops": [], "properties": {}, "geometry": {"type": "Point", "coordinates": [43.2532, 36.4466]}}, {"type": "Feature", "id": "http://data.archaeology.link/data/cigs/CGV", "name": "Palum (CGV)", "dateprops": [], "properties": {}, "geometry": {"type": "Point", "coordinates": [46.5286, 34.1101]}}, {"type": "Feature", "id": "http://data.archaeology.link/data/cigs/DGK", "name": "Dugirdkhan (DGK)", "dateprops": [], "properties": {}, "geometry": {"type": "Point", "coordinates": [44.8475, 36.1549]}}, {"type": "Feature", "id": "http://data.archaeology.link/data/cigs/TBM", "name": "\u05ea\u05dc \u05d1\u05d9\u05ea \u05de\u05d9\u05e8\u05e9\u05dd (TBM)", "dateprops": [], "properties": {}, "geometry": {"type": "Point", "coordinates": [34.9105, 31.4557]}}, {"type": "Feature", "id": "http://data.archaeology.link/data/cigs/URK", "name": "Urki\u0161 (URK)", "dateprops": [], "properties": {}, "geometry": {"type": "Point", "coordinates": [40.9975, 37.0572]}}, {"type": "Feature", "id": "http://data.archaeology.link/data/cigs/CHM", "name": "Jamjam\u0101l (CHM)", "dateprops": [], "properties": {}, "geometry": {"type": "Point", "coordinates": [44.835, 35.5367]}}, {"type": "Feature", "id": "http://data.archaeology.link/data/cigs/GNZ", "name": "Girnavaz (GNZ)", "dateprops": [], "properties": {}, "geometry": {"type": "Point", "coordinates": [41.2304, 37.1049]}}, {"type": "Feature", "id": "http://data.archaeology.link/data/cigs/COZ", "name": "Dur-Unta\u0161 (COZ)", "dateprops": [], "properties": {}, "geometry": {"type": "Point", "coordinates": [48.5229, 32.0078]}}, {"type": "Feature", "id": "http://data.archaeology.link/data/cigs/TAH", "name": "Ta\u015flik H\u00f6y\u00fck (TAH)", "dateprops": [], "properties": {}, "geometry": {"type": "Point", "coordinates": [35.0269, 39.8017]}}, {"type": "Feature", "id": "http://data.archaeology.link/data/cigs/KHT", "name": "Kahat (KHT)", "dateprops": [], "properties": {}, "geometry": {"type": "Point", "coordinates": [41.127, 36.7386]}}, {"type": "Feature", "id": "http://data.archaeology.link/data/cigs/URI", "name": "Ur (URI)", "dateprops": [], "properties": {}, "geometry": {"type": "Point", "coordinates": [46.1063, 30.9607]}}, {"type": "Feature", "id": "http://data.archaeology.link/data/cigs/PEL", "name": "\u1e6cabaqat Fa\u1e25l (PEL)", "dateprops": [], "properties": {}, "geometry": {"type": "Point", "coordinates": [35.613, 32.4501]}}, {"type": "Feature", "id": "http://data.archaeology.link/data/cigs/SBA", "name": "Sab\u0101\u2018a (SBA)", "dateprops": [], "properties": {}, "geometry": {"type": "Point", "coordinates": [41.081, 34.7579]}}, {"type": "Feature", "id": "http://data.archaeology.link/data/cigs/BAB", "name": "Babylon (BAB)", "dateprops": [], "properties": {}, "geometry": {"type": "Point", "coordinates": [44.4258, 32.535]}}, {"type": "Feature", "id": "http://data.archaeology.link/data/cigs/RQI", "name": "Tall al-Raqa\u2018i (RQI)", "dateprops": [], "properties": {}, "geometry": {"type": "Point", "coordinates": [40.8521, 36.44]}}, {"type": "Feature", "id": "http://data.archaeology.link/data/cigs/TDB", "name": "Zaralulu (TDB)", "dateprops": [], "properties": {}, "geometry": {"type": "Point", "coordinates": [44.4823, 33.3229]}}, {"type": "Feature", "id": "http://data.archaeology.link/data/cigs/DAM", "name": "Adama (DAM)", "dateprops": [], "properties": {}, "geometry": {"type": "Point", "coordinates": [35.5469, 32.1038]}}, {"type": "Feature", "id": "http://data.archaeology.link/data/cigs/SWE", "name": "Tall Suwaiyhat (SWE)", "dateprops": [], "properties": {}, "geometry": {"type": "Point", "coordinates": [38.2538, 36.2734]}}, {"type": "Feature", "id": "http://data.archaeology.link/data/cigs/YAZ", "name": "Yaz\u0131l\u0131ta\u015f (YAZ)", "dateprops": [], "properties": {}, "geometry": {"type": "Point", "coordinates": [42.2755, 39.8708]}}, {"type": "Feature", "id": "http://data.archaeology.link/data/cigs/BLW", "name": "Imgur-Enlil (BLW)", "dateprops": [], "properties": {}, "geometry": {"type": "Point", "coordinates": [43.4033, 36.2294]}}, {"type": "Feature", "id": "http://data.archaeology.link/data/cigs/KDH", "name": "\u0642\u0646\u062f\u0647\u0627\u0631 (KDH)", "dateprops": [], "properties": {}, "geometry": {"type": "Point", "coordinates": [65.6588, 31.6025]}}, {"type": "Feature", "id": "http://data.archaeology.link/data/cigs/IHN", "name": "Ras Ibn H\u0101n\u012b (IHN)", "dateprops": [], "properties": {}, "geometry": {"type": "Point", "coordinates": [35.7348, 35.587]}}, {"type": "Feature", "id": "http://data.archaeology.link/data/cigs/LCJ", "name": "Lchajen (LCJ)", "dateprops": [], "properties": {}, "geometry": {"type": "Point", "coordinates": [44.9418, 40.5074]}}, {"type": "Feature", "id": "http://data.archaeology.link/data/cigs/TNA", "name": "\u2018Anah (TNA)", "dateprops": [], "properties": {}, "geometry": {"type": "Point", "coordinates": [41.9794, 34.4677]}}, {"type": "Feature", "id": "http://data.archaeology.link/data/cigs/DLM", "name": "Dilmun (DLM)", "dateprops": [], "properties": {}, "geometry": {"type": "Point", "coordinates": [50.5209, 26.2328]}}, {"type": "Feature", "id": "http://data.archaeology.link/data/cigs/KHW", "name": "Kh\u0101n \u1e24asw\u0101 (KHW)", "dateprops": [], "properties": {}, "geometry": {"type": "Point", "coordinates": [44.4016, 32.8277]}}, {"type": "Feature", "id": "http://data.archaeology.link/data/cigs/ASA", "name": "A\u015fa\u011f\u0131 Anzaf (ASA)", "dateprops": [], "properties": {}, "geometry": {"type": "Point", "coordinates": [43.4643, 38.5678]}}, {"type": "Feature", "id": "http://data.archaeology.link/data/cigs/KSR", "name": "Kisurra (KSR)", "dateprops": [], "properties": {}, "geometry": {"type": "Point", "coordinates": [45.481, 31.8383]}}, {"type": "Feature", "id": "http://data.archaeology.link/data/cigs/CEL", "name": "\u00c7elebiba\u011f\u0131 (CEL)", "dateprops": [], "properties": {}, "geometry": {"type": "Point", "coordinates": [43.3127, 38.9839]}}, {"type": "Feature", "id": "http://data.archaeology.link/data/cigs/TBT", "name": "Tall \u2018Ab\u1e6dah (TBT)", "dateprops": [], "properties": {}, "geometry": {"type": "Point", "coordinates": [42.5619, 35.9432]}}, {"type": "Feature", "id": "http://data.archaeology.link/data/cigs/JAN", "name": "Janfida (JAN)", "dateprops": [], "properties": {}, "geometry": {"type": "Point", "coordinates": [44.0276, 40.0419]}}, {"type": "Feature", "id": "http://data.archaeology.link/data/cigs/HMM", "name": "\u1e24amm\u0101m (HMM)", "dateprops": [], "properties": {}, "geometry": {"type": "Point", "coordinates": [38.1781, 36.6413]}}, {"type": "Feature", "id": "http://data.archaeology.link/data/cigs/HOR", "name": "Unknown (HOR)", "dateprops": [], "properties": {}, "geometry": {"type": "Point", "coordinates": [48.5022, 32.0313]}}, {"type": "Feature", "id": "http://data.archaeology.link/data/cigs/THW", "name": "Tall al-Hawa (THW)", "dateprops": [], "properties": {}, "geometry": {"type": "Point", "coordinates": [42.3012, 36.7482]}}, {"type": "Feature", "id": "http://data.archaeology.link/data/cigs/ZBD", "name": "Tall Zub\u012bd\u012b (ZBD)", "dateprops": [], "properties": {}, "geometry": {"type": "Point", "coordinates": [45.0312, 34.1982]}}, {"type": "Feature", "id": "http://data.archaeology.link/data/cigs/HAZ", "name": "\u05ea\u05dc \u05d7\u05e6\u05d5\u05e8 (HAZ)", "dateprops": [], "properties": {}, "geometry": {"type": "Point", "coordinates": [35.5654, 33.0209]}}, {"type": "Feature", "id": "http://data.archaeology.link/data/cigs/RTE", "name": "Rabat Tapah (RTE)", "dateprops": [], "properties": {}, "geometry": {"type": "Point", "coordinates": [45.5397, 36.201]}}, {"type": "Feature", "id": "http://data.archaeology.link/data/cigs/NRB", "name": "Nerebtum (NRB)", "dateprops": [], "properties": {}, "geometry": {"type": "Point", "coordinates": [44.5828, 33.3029]}}, {"type": "Feature", "id": "http://data.archaeology.link/data/cigs/BOR", "name": "Borsippa (BOR)", "dateprops": [], "properties": {}, "geometry": {"type": "Point", "coordinates": [44.3434, 32.3924]}}, {"type": "Feature", "id": "http://data.archaeology.link/data/cigs/BRS", "name": "Br\u012b\u1e63\u0101 (BRS)", "dateprops": [], "properties": {}, "geometry": {"type": "Point", "coordinates": [36.3117, 34.4309]}}, {"type": "Feature", "id": "http://data.archaeology.link/data/cigs/KFI", "name": "\u06a9\u0627\u0645\u0641\u06cc\u0631\u0648\u0632 (KFI)", "dateprops": [], "properties": {}, "geometry": {"type": "Point", "coordinates": [52.1962, 30.3241]}}, {"type": "Feature", "id": "http://data.archaeology.link/data/cigs/YON", "name": "Yoncali (YON)", "dateprops": [], "properties": {}, "geometry": {"type": "Point", "coordinates": [42.1875, 39.129]}}, {"type": "Feature", "id": "http://data.archaeology.link/data/cigs/MLK", "name": "Al-Mukha\u1e6d\u1e6da\u1e6d (MLK)", "dateprops": [], "properties": {}, "geometry": {"type": "Point", "coordinates": [44.4962, 32.337]}}, {"type": "Feature", "id": "http://data.archaeology.link/data/cigs/SMR", "name": "S\u0101mmar\u0101 (SMR)", "dateprops": [], "properties": {}, "geometry": {"type": "Point", "coordinates": [43.8795, 34.2291]}}, {"type": "Feature", "id": "http://data.archaeology.link/data/cigs/MCZ", "name": "Tall al-Disim (MCZ)", "dateprops": [], "properties": {}, "geometry": {"type": "Point", "coordinates": [45.3929, 32.1415]}}, {"type": "Feature", "id": "http://data.archaeology.link/data/cigs/SYA", "name": "Tall Si\u0101n\u016b (SYA)", "dateprops": [], "properties": {}, "geometry": {"type": "Point", "coordinates": [36.0028, 35.3653]}}, {"type": "Feature", "id": "http://data.archaeology.link/data/cigs/TUH", "name": "\u1e6cul\u016bl al-\u1e24umr (TUH)", "dateprops": [], "properties": {}, "geometry": {"type": "Point", "coordinates": [45.2872, 31.8567]}}, {"type": "Feature", "id": "http://data.archaeology.link/data/cigs/BTB", "name": "Bad-Tibira (BTB)", "dateprops": [], "properties": {}, "geometry": {"type": "Point", "coordinates": [46.004, 31.3832]}}, {"type": "Feature", "id": "http://data.archaeology.link/data/cigs/JUH", "name": "Tall J\u016bkha (JUH)", "dateprops": [], "properties": {}, "geometry": {"type": "Point", "coordinates": [43.6918, 33.3424]}}, {"type": "Feature", "id": "http://data.archaeology.link/data/cigs/KEC", "name": "Ke\u00e7ik\u0131ran (KEC)", "dateprops": [], "properties": {}, "geometry": {"type": "Point", "coordinates": [43.6345, 38.9714]}}, {"type": "Feature", "id": "http://data.archaeology.link/data/cigs/PAT", "name": "Patnos (PAT)", "dateprops": [], "properties": {}, "geometry": {"type": "Point", "coordinates": [42.864, 39.2332]}}, {"type": "Feature", "id": "http://data.archaeology.link/data/cigs/IDH", "name": "Ish\u0101n Dhahak (IDH)", "dateprops": [], "properties": {}, "geometry": {"type": "Point", "coordinates": [44.8341, 32.7104]}}, {"type": "Feature", "id": "http://data.archaeology.link/data/cigs/TNH", "name": "T\u02bbanahat (TNH)", "dateprops": [], "properties": {}, "geometry": {"type": "Point", "coordinates": [45.925, 39.4156]}}, {"type": "Feature", "id": "http://data.archaeology.link/data/cigs/KHI", "name": "\u062a\u067e\u0647 \u062e\u06cc\u0628\u0631 (KHI)", "dateprops": [], "properties": {}, "geometry": {"type": "Point", "coordinates": [46.6409, 34.5441]}}, {"type": "Feature", "id": "http://data.archaeology.link/data/cigs/ASD", "name": "Asd\u00fbdu (ASD)", "dateprops": [], "properties": {}, "geometry": {"type": "Point", "coordinates": [34.6593, 31.756]}}, {"type": "Feature", "id": "http://data.archaeology.link/data/cigs/BIT", "name": "Bitlis (BIT)", "dateprops": [], "properties": {}, "geometry": {"type": "Point", "coordinates": [42.1071, 38.4013]}}, {"type": "Feature", "id": "http://data.archaeology.link/data/cigs/CAV", "name": "Sardurihinili (CAV)", "dateprops": [], "properties": {}, "geometry": {"type": "Point", "coordinates": [43.4619, 38.3533]}}, {"type": "Feature", "id": "http://data.archaeology.link/data/cigs/HBK", "name": "\u1e24ab\u016bbah (HBK)", "dateprops": [], "properties": {}, "geometry": {"type": "Point", "coordinates": [38.0609, 36.1501]}}, {"type": "Feature", "id": "http://data.archaeology.link/data/cigs/DIB", "name": "Dibba (DIB)", "dateprops": [], "properties": {}, "geometry": {"type": "Point", "coordinates": [56.2639, 25.6317]}}, {"type": "Feature", "id": "http://data.archaeology.link/data/cigs/MGD", "name": "\u05de\u05d2\u05d9\u05d3\u05d5 (MGD)", "dateprops": [], "properties": {}, "geometry": {"type": "Point", "coordinates": [35.1828, 32.5822]}}, {"type": "Feature", "id": "http://data.archaeology.link/data/cigs/UBD", "name": "Tall al-\u02bbUba\u012bd (UBD)", "dateprops": [], "properties": {}, "geometry": {"type": "Point", "coordinates": [46.0305, 30.9722]}}, {"type": "Feature", "id": "http://data.archaeology.link/data/cigs/AGR", "name": "Tall Ajrab (AGR)", "dateprops": [], "properties": {}, "geometry": {"type": "Point", "coordinates": [44.8742, 33.3391]}}, {"type": "Feature", "id": "http://data.archaeology.link/data/cigs/GWR", "name": "Tapah Gawra (GWR)", "dateprops": [], "properties": {}, "geometry": {"type": "Point", "coordinates": [43.2604, 36.4958]}}, {"type": "Feature", "id": "http://data.archaeology.link/data/cigs/GOT", "name": "\u06af\u0648\u062f\u06cc\u0646\u200c\u062a\u067e\u0647 (GOT)", "dateprops": [], "properties": {}, "geometry": {"type": "Point", "coordinates": [48.0685, 34.5183]}}, {"type": "Feature", "id": "http://data.archaeology.link/data/cigs/NNV", "name": "Nineveh (NNV)", "dateprops": [], "properties": {}, "geometry": {"type": "Point", "coordinates": [43.1621, 36.3582]}}, {"type": "Feature", "id": "http://data.archaeology.link/data/cigs/NQS", "name": "\u0646\u0642\u0634 \u0631\u0633\u062a\u0645 (NQS)", "dateprops": [], "properties": {}, "geometry": {"type": "Point", "coordinates": [52.8745, 29.9885]}}, {"type": "Feature", "id": "http://data.archaeology.link/data/cigs/TJZ", "name": "Tarj\u0101n (TJZ)", "dateprops": [], "properties": {}, "geometry": {"type": "Point", "coordinates": [43.7581, 36.1224]}}, {"type": "Feature", "id": "http://data.archaeology.link/data/cigs/SLA", "name": "Al-Sila\u2018 (SLA)", "dateprops": [], "properties": {}, "geometry": {"type": "Point", "coordinates": [35.5779, 30.7823]}}, {"type": "Feature", "id": "http://data.archaeology.link/data/cigs/KKU", "name": "Unknown (KKU)", "dateprops": [], "properties": {}, "geometry": {"type": "Point", "coordinates": [35.0062, 32.4242]}}, {"type": "Feature", "id": "http://data.archaeology.link/data/cigs/SIP", "name": "Sippar-Amnanum (SIP)", "dateprops": [], "properties": {}, "geometry": {"type": "Point", "coordinates": [44.2991, 33.0991]}}, {"type": "Feature", "id": "http://data.archaeology.link/data/cigs/GAV", "name": "DHaldiei URU (GAV)", "dateprops": [], "properties": {}, "geometry": {"type": "Point", "coordinates": [45.1383, 40.3547]}}, {"type": "Feature", "id": "http://data.archaeology.link/data/cigs/KAY", "name": "\u0160amu\u1e2ba (KAY)", "dateprops": [], "properties": {}, "geometry": {"type": "Point", "coordinates": [36.5279, 39.6211]}}, {"type": "Feature", "id": "http://data.archaeology.link/data/cigs/FAK", "name": "Tall al-Fakhar (FAK)", "dateprops": [], "properties": {}, "geometry": {"type": "Point", "coordinates": [43.9799, 35.3808]}}, {"type": "Feature", "id": "http://data.archaeology.link/data/cigs/KOU", "name": "Kourion (KOU)", "dateprops": [], "properties": {}, "geometry": {"type": "Point", "coordinates": [32.8844, 34.6666]}}, {"type": "Feature", "id": "http://data.archaeology.link/data/cigs/PHG", "name": "\u0424\u0430\u043d\u0430\u0433\u043e\u0440\u0438\u044f (PHG)", "dateprops": [], "properties": {}, "geometry": {"type": "Point", "coordinates": [36.9584, 45.2759]}}, {"type": "Feature", "id": "http://data.archaeology.link/data/cigs/EBA", "name": "Ebla (EBA)", "dateprops": [], "properties": {}, "geometry": {"type": "Point", "coordinates": [36.7983, 35.799]}}, {"type": "Feature", "id": "http://data.archaeology.link/data/cigs/AUS", "name": "Pitru (AUS)", "dateprops": [], "properties": {}, "geometry": {"type": "Point", "coordinates": [38.0755, 36.6599]}}, {"type": "Feature", "id": "http://data.archaeology.link/data/cigs/SIH", "name": "Sihke (SIH)", "dateprops": [], "properties": {}, "geometry": {"type": "Point", "coordinates": [43.4354, 38.5072]}}, {"type": "Feature", "id": "http://data.archaeology.link/data/cigs/SRK", "name": "Sar\u0131kam\u0131\u015f (SRK)", "dateprops": [], "properties": {}, "geometry": {"type": "Point", "coordinates": [42.5796, 40.3348]}}, {"type": "Feature", "id": "http://data.archaeology.link/data/cigs/ASK", "name": "Tall Ab\u016b \u1e62\u0101lab\u012bkh (ASK)", "dateprops": [], "properties": {}, "geometry": {"type": "Point", "coordinates": [45.0544, 32.2526]}}, {"type": "Feature", "id": "http://data.archaeology.link/data/cigs/LAG", "name": "Laga\u0161 (LAG)", "dateprops": [], "properties": {}, "geometry": {"type": "Point", "coordinates": [46.4108, 31.4182]}}, {"type": "Feature", "id": "http://data.archaeology.link/data/cigs/SUS", "name": "Susa (SUS)", "dateprops": [], "properties": {}, "geometry": {"type": "Point", "coordinates": [48.2569, 32.1895]}}, {"type": "Feature", "id": "http://data.archaeology.link/data/cigs/BHS", "name": "Ban\u0101t al-Hassan (BHS)", "dateprops": [], "properties": {}, "geometry": {"type": "Point", "coordinates": [45.5399, 31.5557]}}, {"type": "Feature", "id": "http://data.archaeology.link/data/cigs/HAY", "name": "Haykavan (HAY)", "dateprops": [], "properties": {}, "geometry": {"type": "Point", "coordinates": [44.0462, 40.091]}}, {"type": "Feature", "id": "http://data.archaeology.link/data/cigs/KAD", "name": "Kadembas (KAD)", "dateprops": [], "properties": {}, "geometry": {"type": "Point", "coordinates": [43.2312, 38.4084]}}, {"type": "Feature", "id": "http://data.archaeology.link/data/cigs/ANZ", "name": "Dere\u00fcst\u00fc (ANZ)", "dateprops": [], "properties": {}, "geometry": {"type": "Point", "coordinates": [43.47, 38.5563]}}, {"type": "Feature", "id": "http://data.archaeology.link/data/cigs/AZF", "name": "Yukar\u0131 Anzaf (AZF)", "dateprops": [], "properties": {}, "geometry": {"type": "Point", "coordinates": [43.4703, 38.5597]}}, {"type": "Feature", "id": "http://data.archaeology.link/data/cigs/NAL", "name": "Nalbandyan (NAL)", "dateprops": [], "properties": {}, "geometry": {"type": "Point", "coordinates": [43.9873, 40.0628]}}, {"type": "Feature", "id": "http://data.archaeology.link/data/cigs/FLO", "name": "Falerii (FLO)", "dateprops": [], "properties": {}, "geometry": {"type": "Point", "coordinates": [12.4217, 42.2988]}}, {"type": "Feature", "id": "http://data.archaeology.link/data/cigs/ASZ", "name": "A\u0161nakkum (ASZ)", "dateprops": [], "properties": {}, "geometry": {"type": "Point", "coordinates": [40.8978, 36.8755]}}, {"type": "Feature", "id": "http://data.archaeology.link/data/cigs/QNT", "name": "Qant\u012br (QNT)", "dateprops": [], "properties": {}, "geometry": {"type": "Point", "coordinates": [31.8345, 30.8017]}}, {"type": "Feature", "id": "http://data.archaeology.link/data/cigs/ORT", "name": "Sapinuwa (ORT)", "dateprops": [], "properties": {}, "geometry": {"type": "Point", "coordinates": [35.2375, 40.2541]}}, {"type": "Feature", "id": "http://data.archaeology.link/data/cigs/TRQ", "name": "Terqa (TRQ)", "dateprops": [], "properties": {}, "geometry": {"type": "Point", "coordinates": [40.5677, 34.9229]}}, {"type": "Feature", "id": "http://data.archaeology.link/data/cigs/BLQ", "name": "Al-Bilad al-Qad\u012bm (BLQ)", "dateprops": [], "properties": {}, "geometry": {"type": "Point", "coordinates": [50.5371, 26.2184]}}, {"type": "Feature", "id": "http://data.archaeology.link/data/cigs/KZL", "name": "\u1e62umur (KZL)", "dateprops": [], "properties": {}, "geometry": {"type": "Point", "coordinates": [35.9862, 34.7085]}}, {"type": "Feature", "id": "http://data.archaeology.link/data/cigs/TYM", "name": "\u1e6caym\u0101 (TYM)", "dateprops": [], "properties": {}, "geometry": {"type": "Point", "coordinates": [38.5499, 27.6219]}}, {"type": "Feature", "id": "http://data.archaeology.link/data/cigs/SEQ", "name": "URULibliuni (SEQ)", "dateprops": [], "properties": {}, "geometry": {"type": "Point", "coordinates": [46.7375, 38.5041]}}, {"type": "Feature", "id": "http://data.archaeology.link/data/cigs/DWL", "name": "Al-Daw\u0101l\u012b (DWL)", "dateprops": [], "properties": {}, "geometry": {"type": "Point", "coordinates": [41.9912, 34.4535]}}, {"type": "Feature", "id": "http://data.archaeology.link/data/cigs/KML", "name": "Kar-Mullissi (KML)", "dateprops": [], "properties": {}, "geometry": {"type": "Point", "coordinates": [43.4095, 36.3056]}}, {"type": "Feature", "id": "http://data.archaeology.link/data/cigs/DUB", "name": "Ab\u016b Dhuba\u2018 (DUB)", "dateprops": [], "properties": {}, "geometry": {"type": "Point", "coordinates": [45.6225, 31.6772]}}, {"type": "Feature", "id": "http://data.archaeology.link/data/cigs/FRA", "name": "Tall Fray (FRA)", "dateprops": [], "properties": {}, "geometry": {"type": "Point", "coordinates": [38.3835, 35.9029]}}, {"type": "Feature", "id": "http://data.archaeology.link/data/cigs/FAQ", "name": "F\u0101q\u016bs (FAQ)", "dateprops": [], "properties": {}, "geometry": {"type": "Point", "coordinates": [31.7964, 30.7276]}}, {"type": "Feature", "id": "http://data.archaeology.link/data/cigs/KHA", "name": "Tall Khaibar (KHA)", "dateprops": [], "properties": {}, "geometry": {"type": "Point", "coordinates": [45.9328, 31.0593]}}, {"type": "Feature", "id": "http://data.archaeology.link/data/cigs/CPE", "name": "\u0686\u063a\u0627\u067e\u0647\u0646 (CPE)", "dateprops": [], "properties": {}, "geometry": {"type": "Point", "coordinates": [48.6133, 32.2291]}}, {"type": "Feature", "id": "http://data.archaeology.link/data/cigs/KNS", "name": "Kanesh (KNS)", "dateprops": [], "properties": {}, "geometry": {"type": "Point", "coordinates": [35.6365, 38.8517]}}, {"type": "Feature", "id": "http://data.archaeology.link/data/cigs/TAW", "name": "\u1e6caw\u012bl\u0101n (TAW)", "dateprops": [], "properties": {}, "geometry": {"type": "Point", "coordinates": [35.4848, 30.3313]}}, {"type": "Feature", "id": "http://data.archaeology.link/data/cigs/KTN", "name": "Kar-Tukulti-Ninurta (KTN)", "dateprops": [], "properties": {}, "geometry": {"type": "Point", "coordinates": [43.2793, 35.4944]}}, {"type": "Feature", "id": "http://data.archaeology.link/data/cigs/QAB", "name": "Tall Qabr Abu al-\u2019At\u012bq (QAB)", "dateprops": [], "properties": {}, "geometry": {"type": "Point", "coordinates": [39.7854, 35.763]}}, {"type": "Feature", "id": "http://data.archaeology.link/data/cigs/HSI", "name": "\u05ea\u05dc \u05d7\u05e1\u05d9 (HSI)", "dateprops": [], "properties": {}, "geometry": {"type": "Point", "coordinates": [34.7307, 31.5474]}}, {"type": "Feature", "id": "http://data.archaeology.link/data/cigs/SSH", "name": "\u0634\u064a\u0634\u0647 (SSH)", "dateprops": [], "properties": {}, "geometry": {"type": "Point", "coordinates": [47.3662, 38.6075]}}, {"type": "Feature", "id": "http://data.archaeology.link/data/cigs/NOR", "name": "Noragavid (NOR)", "dateprops": [], "properties": {}, "geometry": {"type": "Point", "coordinates": [44.4743, 40.1198]}}, {"type": "Feature", "id": "http://data.archaeology.link/data/cigs/KRC", "name": "Karaca\u00f6ren (KRC)", "dateprops": [], "properties": {}, "geometry": {"type": "Point", "coordinates": [36.7554, 39.8534]}}, {"type": "Feature", "id": "http://data.archaeology.link/data/cigs/HFR", "name": "Umm al-\u1e24afry\u0101t (HFR)", "dateprops": [], "properties": {}, "geometry": {"type": "Point", "coordinates": [45.4915, 31.6426]}}, {"type": "Feature", "id": "http://data.archaeology.link/data/cigs/AJJ", "name": "Shaddikanni (AJJ)", "dateprops": [], "properties": {}, "geometry": {"type": "Point", "coordinates": [40.7205, 36.2082]}}, {"type": "Feature", "id": "http://data.archaeology.link/data/cigs/BAK", "name": "Bakra\u00e7l\u0131 (BAK)", "dateprops": [], "properties": {}, "geometry": {"type": "Point", "coordinates": [43.4612, 38.4491]}}, {"type": "Feature", "id": "http://data.archaeology.link/data/cigs/CGM", "name": "\u0686\u063a\u0627\u0645\u06cc\u0634 (CGM)", "dateprops": [], "properties": {}, "geometry": {"type": "Point", "coordinates": [48.5555, 32.224]}}, {"type": "Feature", "id": "http://data.archaeology.link/data/cigs/DIL", "name": "Dilmun (DIL)", "dateprops": [], "properties": {}, "geometry": {"type": "Point", "coordinates": [50.5256, 26.1517]}}, {"type": "Feature", "id": "http://data.archaeology.link/data/cigs/QAT", "name": "Qatara (QAT)", "dateprops": [], "properties": {}, "geometry": {"type": "Point", "coordinates": [42.45, 36.2569]}}, {"type": "Feature", "id": "http://data.archaeology.link/data/cigs/MRW", "name": "Tall Marw\u0101ny (MRW)", "dateprops": [], "properties": {}, "geometry": {"type": "Point", "coordinates": [40.6627, 34.8669]}}, {"type": "Feature", "id": "http://data.archaeology.link/data/cigs/TAB", "name": "Tall \u1e6c\u0101b\u0101n (TAB)", "dateprops": [], "properties": {}, "geometry": {"type": "Point", "coordinates": [40.7878, 36.3362]}}, {"type": "Feature", "id": "http://data.archaeology.link/data/cigs/JOK", "name": "Umma (JOK)", "dateprops": [], "properties": {}, "geometry": {"type": "Point", "coordinates": [45.8861, 31.6669]}}, {"type": "Feature", "id": "http://data.archaeology.link/data/cigs/KRH", "name": "Karahan (KRH)", "dateprops": [], "properties": {}, "geometry": {"type": "Point", "coordinates": [43.6607, 38.9493]}}, {"type": "Feature", "id": "http://data.archaeology.link/data/cigs/HRP", "name": "Harput (HRP)", "dateprops": [], "properties": {}, "geometry": {"type": "Point", "coordinates": [39.2573, 38.7037]}}, {"type": "Feature", "id": "http://data.archaeology.link/data/cigs/NIP", "name": "Nippur (NIP)", "dateprops": [], "properties": {}, "geometry": {"type": "Point", "coordinates": [45.23, 32.1271]}}, {"type": "Feature", "id": "http://data.archaeology.link/data/cigs/KOS", "name": "\u06a9\u0646\u0627\u0631 \u0635\u0646\u062f\u0644 (KOS)", "dateprops": [], "properties": {}, "geometry": {"type": "Point", "coordinates": [57.7787, 28.4494]}}, {"type": "Feature", "id": "http://data.archaeology.link/data/cigs/TIK", "name": "Tikr\u012bt (TIK)", "dateprops": [], "properties": {}, "geometry": {"type": "Point", "coordinates": [43.6753, 34.5974]}}, {"type": "Feature", "id": "http://data.archaeology.link/data/cigs/MCH", "name": "\u05de\u05b4\u05db\u05b0\u05de\u05b9\u05e8\u05b6\u05ea (MCH)", "dateprops": [], "properties": {}, "geometry": {"type": "Point", "coordinates": [34.8659, 32.4013]}}, {"type": "Feature", "id": "http://data.archaeology.link/data/cigs/TKH", "name": "Tul\u016bl Kha\u1e6d\u0101b (TKH)", "dateprops": [], "properties": {}, "geometry": {"type": "Point", "coordinates": [44.5136, 33.4767]}}, {"type": "Feature", "id": "http://data.archaeology.link/data/cigs/SZU", "name": "\u0160u\u0161arra (SZU)", "dateprops": [], "properties": {}, "geometry": {"type": "Point", "coordinates": [44.9384, 36.2016]}}, {"type": "Feature", "id": "http://data.archaeology.link/data/cigs/MUR", "name": "Muradiye (MUR)", "dateprops": [], "properties": {}, "geometry": {"type": "Point", "coordinates": [43.7634, 38.9913]}}, {"type": "Feature", "id": "http://data.archaeology.link/data/cigs/SQL", "name": "Isqalluna (SQL)", "dateprops": [], "properties": {}, "geometry": {"type": "Point", "coordinates": [34.5471, 31.6629]}}, {"type": "Feature", "id": "http://data.archaeology.link/data/cigs/ADA", "name": "Adalar (ADA)", "dateprops": [], "properties": {}, "geometry": {"type": "Point", "coordinates": [42.5142, 39.124]}}, {"type": "Feature", "id": "http://data.archaeology.link/data/cigs/AWA", "name": "Qal\u2018at \u2018Awaynah (AWA)", "dateprops": [], "properties": {}, "geometry": {"type": "Point", "coordinates": [43.7195, 36.0754]}}, {"type": "Feature", "id": "http://data.archaeology.link/data/cigs/AFA", "name": "Tul\u016bl al-F\u0101j (AFA)", "dateprops": [], "properties": {}, "geometry": {"type": "Point", "coordinates": [45.0956, 32.5741]}}, {"type": "Feature", "id": "http://data.archaeology.link/data/cigs/RUT", "name": "Unknown (RUT)", "dateprops": [], "properties": {}, "geometry": {"type": "Point", "coordinates": [43.7555, 42.9889]}}, {"type": "Feature", "id": "http://data.archaeology.link/data/cigs/MRL", "name": "\u0645\u0627\u0631\u0644\u06cc\u06a9 (MRL)", "dateprops": [], "properties": {}, "geometry": {"type": "Point", "coordinates": [49.5019, 36.8528]}}, {"type": "Feature", "id": "http://data.archaeology.link/data/cigs/TKP", "name": "Ta\u015fk\u00f6pr\u00fc (TKP)", "dateprops": [], "properties": {}, "geometry": {"type": "Point", "coordinates": [43.2489, 40.9553]}}, {"type": "Feature", "id": "http://data.archaeology.link/data/cigs/JRW", "name": "Jar\u0101wanah (JRW)", "dateprops": [], "properties": {}, "geometry": {"type": "Point", "coordinates": [43.3934, 36.6697]}}, {"type": "Feature", "id": "http://data.archaeology.link/data/cigs/BSV", "name": "\u05ea\u05dc \u05d1\u05d0\u05e8 \u05e9\u05d1\u05e2 (BSV)", "dateprops": [], "properties": {}, "geometry": {"type": "Point", "coordinates": [34.8406, 31.2449]}}, {"type": "Feature", "id": "http://data.archaeology.link/data/cigs/DNO", "name": "\u062f\u06d5 \u0646\u0648 (DNO)", "dateprops": [], "properties": {}, "geometry": {"type": "Point", "coordinates": [48.5684, 32.0686]}}, {"type": "Feature", "id": "http://data.archaeology.link/data/cigs/SRM", "name": "Sarma\u00e7 (SRM)", "dateprops": [], "properties": {}, "geometry": {"type": "Point", "coordinates": [43.496, 38.4984]}}, {"type": "Feature", "id": "http://data.archaeology.link/data/cigs/TRM", "name": "Alazl\u0131 (TRM)", "dateprops": [], "properties": {}, "geometry": {"type": "Point", "coordinates": [41.8247, 38.6939]}}, {"type": "Feature", "id": "http://data.archaeology.link/data/cigs/LRK", "name": "Larak (LRK)", "dateprops": [], "properties": {}, "geometry": {"type": "Point", "coordinates": [45.6602, 32.3127]}}, {"type": "Feature", "id": "http://data.archaeology.link/data/cigs/BAS", "name": "Mardaman (BAS)", "dateprops": [], "properties": {}, "geometry": {"type": "Point", "coordinates": [42.7213, 36.9589]}}, {"type": "Feature", "id": "http://data.archaeology.link/data/cigs/BUL", "name": "Bulutp\u0131nar (BUL)", "dateprops": [], "properties": {}, "geometry": {"type": "Point", "coordinates": [42.655, 39.3397]}}, {"type": "Feature", "id": "http://data.archaeology.link/data/cigs/SPH", "name": "\u05e6\u05b4\u05e4\u05bc\u05d5\u05b9\u05e8\u05b4\u05d9 (SPH)", "dateprops": [], "properties": {}, "geometry": {"type": "Point", "coordinates": [35.279, 32.7529]}}, {"type": "Feature", "id": "http://data.archaeology.link/data/cigs/ARM", "name": "Argi\u0161tihinili (ARM)", "dateprops": [], "properties": {}, "geometry": {"type": "Point", "coordinates": [44.0229, 40.0789]}}, {"type": "Feature", "id": "http://data.archaeology.link/data/cigs/SKH", "name": "Tarbisu (SKH)", "dateprops": [], "properties": {}, "geometry": {"type": "Point", "coordinates": [43.0774, 36.4089]}}, {"type": "Feature", "id": "http://data.archaeology.link/data/cigs/BSE", "name": "\u05ea\u05dc \u05d1\u05d9\u05ea \u05e9\u05de\u05e9 (BSE)", "dateprops": [], "properties": {}, "geometry": {"type": "Point", "coordinates": [34.9748, 31.7506]}}, {"type": "Feature", "id": "http://data.archaeology.link/data/cigs/RBT", "name": "Tall \u2018Arb\u012bd (RBT)", "dateprops": [], "properties": {}, "geometry": {"type": "Point", "coordinates": [41.0207, 36.8728]}}, {"type": "Feature", "id": "http://data.archaeology.link/data/cigs/ELM", "name": "Elmal\u0131k (ELM)", "dateprops": [], "properties": {}, "geometry": {"type": "Point", "coordinates": [43.3098, 38.4119]}}, {"type": "Feature", "id": "http://data.archaeology.link/data/cigs/IDU", "name": "Idu (IDU)", "dateprops": [], "properties": {}, "geometry": {"type": "Point", "coordinates": [44.6965, 35.8739]}}, {"type": "Feature", "id": "http://data.archaeology.link/data/cigs/ARI", "name": "Erebuni (ARI)", "dateprops": [], "properties": {}, "geometry": {"type": "Point", "coordinates": [44.538, 40.1405]}}, {"type": "Feature", "id": "http://data.archaeology.link/data/cigs/DAS", "name": "Daskileion (DAS)", "dateprops": [], "properties": {}, "geometry": {"type": "Point", "coordinates": [28.0507, 40.1326]}}, {"type": "Feature", "id": "http://data.archaeology.link/data/cigs/GIR", "name": "Girsu (GIR)", "dateprops": [], "properties": {}, "geometry": {"type": "Point", "coordinates": [46.1776, 31.5591]}}, {"type": "Feature", "id": "http://data.archaeology.link/data/cigs/MAL", "name": "Malazgirt (MAL)", "dateprops": [], "properties": {}, "geometry": {"type": "Point", "coordinates": [42.5409, 39.1461]}}, {"type": "Feature", "id": "http://data.archaeology.link/data/cigs/TGA", "name": "\u062a\u067e\u0647 \u06af\u0627\u0631\u0627\u0646 (TGA)", "dateprops": [], "properties": {}, "geometry": {"type": "Point", "coordinates": [47.3375, 32.5802]}}, {"type": "Feature", "id": "http://data.archaeology.link/data/cigs/HJR", "name": "Al-\u1e24ajar (HJR)", "dateprops": [], "properties": {}, "geometry": {"type": "Point", "coordinates": [50.5137, 26.2151]}}, {"type": "Feature", "id": "http://data.archaeology.link/data/cigs/BRK", "name": "Nagar (BRK)", "dateprops": [], "properties": {}, "geometry": {"type": "Point", "coordinates": [41.0584, 36.667]}}, {"type": "Feature", "id": "http://data.archaeology.link/data/cigs/AST", "name": "Metsopay-Vank (AST)", "dateprops": [], "properties": {}, "geometry": {"type": "Point", "coordinates": [43.0397, 39.1679]}}, {"type": "Feature", "id": "http://data.archaeology.link/data/cigs/NGB", "name": "Nig\u016bb (NGB)", "dateprops": [], "properties": {}, "geometry": {"type": "Point", "coordinates": [43.4762, 36.0446]}}, {"type": "Feature", "id": "http://data.archaeology.link/data/cigs/BAM", "name": "Kition (BAM)", "dateprops": [], "properties": {}, "geometry": {"type": "Point", "coordinates": [33.6329, 34.9201]}}, {"type": "Feature", "id": "http://data.archaeology.link/data/cigs/PRA", "name": "B\u0101rah (PRA)", "dateprops": [], "properties": {}, "geometry": {"type": "Point", "coordinates": [41.4851, 36.3757]}}, {"type": "Feature", "id": "http://data.archaeology.link/data/cigs/PRS", "name": "P\u0101r\u015ba (PRS)", "dateprops": [], "properties": {}, "geometry": {"type": "Point", "coordinates": [52.8925, 29.9343]}}, {"type": "Feature", "id": "http://data.archaeology.link/data/cigs/ANT", "name": "Pi-Kas\u00ee (ANT)", "dateprops": [], "properties": {}, "geometry": {"type": "Point", "coordinates": [44.6393, 32.1311]}}, {"type": "Feature", "id": "http://data.archaeology.link/data/cigs/HPK", "name": "Hazine Piri Kap\u0131s\u0131 (HPK)", "dateprops": [], "properties": {}, "geometry": {"type": "Point", "coordinates": [43.3045, 38.4069]}}, {"type": "Feature", "id": "http://data.archaeology.link/data/cigs/PAS", "name": "Pa\u0161ime (PAS)", "dateprops": [], "properties": {}, "geometry": {"type": "Point", "coordinates": [47.1479, 32.3944]}}, {"type": "Feature", "id": "http://data.archaeology.link/data/cigs/AZN", "name": "Aludiri (AZN)", "dateprops": [], "properties": {}, "geometry": {"type": "Point", "coordinates": [42.8337, 39.2502]}}, {"type": "Feature", "id": "http://data.archaeology.link/data/cigs/THA", "name": "\u05ea\u05e2\u05e0\u05db (THA)", "dateprops": [], "properties": {}, "geometry": {"type": "Point", "coordinates": [35.2195, 32.5216]}}, {"type": "Feature", "id": "http://data.archaeology.link/data/cigs/BAY", "name": "Bays\u0101n (BAY)", "dateprops": [], "properties": {}, "geometry": {"type": "Point", "coordinates": [43.1037, 36.4222]}}, {"type": "Feature", "id": "http://data.archaeology.link/data/cigs/QQN", "name": "\u05e7\u05d0\u05e7\u05d5\u05df (QQN)", "dateprops": [], "properties": {}, "geometry": {"type": "Point", "coordinates": [34.995, 32.3593]}}, {"type": "Feature", "id": "http://data.archaeology.link/data/cigs/GJN", "name": "\u06af\u0646\u062c\u0646\u0627\u0645\u0647 (GJN)", "dateprops": [], "properties": {}, "geometry": {"type": "Point", "coordinates": [48.4373, 34.7622]}}, {"type": "Feature", "id": "http://data.archaeology.link/data/cigs/CKK", "name": "\u06a9\u0644\u0645\u0627\u06a9\u0631\u0647 (CKK)", "dateprops": [], "properties": {}, "geometry": {"type": "Point", "coordinates": [47.601, 33.1998]}}, {"type": "Feature", "id": "http://data.archaeology.link/data/cigs/KKH", "name": "\u00dc\u00e7tepe (KKH)", "dateprops": [], "properties": {}, "geometry": {"type": "Point", "coordinates": [40.5397, 37.826]}}, {"type": "Feature", "id": "http://data.archaeology.link/data/cigs/NAB", "name": "Nabada (NAB)", "dateprops": [], "properties": {}, "geometry": {"type": "Point", "coordinates": [40.5872, 36.7381]}}, {"type": "Feature", "id": "http://data.archaeology.link/data/cigs/SNJ", "name": "Bitw\u0101t\u0101 (SNJ)", "dateprops": [], "properties": {}, "geometry": {"type": "Point", "coordinates": [44.7031, 36.3398]}}, {"type": "Feature", "id": "http://data.archaeology.link/data/cigs/EDF", "name": "Idf\u016b (EDF)", "dateprops": [], "properties": {}, "geometry": {"type": "Point", "coordinates": [32.8728, 24.9782]}}, {"type": "Feature", "id": "http://data.archaeology.link/data/cigs/HLW", "name": "Tall \u1e24al\u0101wah (HLW)", "dateprops": [], "properties": {}, "geometry": {"type": "Point", "coordinates": [44.4874, 33.4258]}}, {"type": "Feature", "id": "http://data.archaeology.link/data/cigs/BAQ", "name": "Bit-Adad-eriba (BAQ)", "dateprops": [], "properties": {}, "geometry": {"type": "Point", "coordinates": [42.9369, 36.6888]}}, {"type": "Feature", "id": "http://data.archaeology.link/data/cigs/SFR", "name": "Kutalla (SFR)", "dateprops": [], "properties": {}, "geometry": {"type": "Point", "coordinates": [45.9672, 31.2946]}}, {"type": "Feature", "id": "http://data.archaeology.link/data/cigs/OYH", "name": "Oylum H\u00f6y\u00fck (OYH)", "dateprops": [], "properties": {}, "geometry": {"type": "Point", "coordinates": [37.1786, 36.6988]}}, {"type": "Feature", "id": "http://data.archaeology.link/data/cigs/UGA", "name": "Ugarit (UGA)", "dateprops": [], "properties": {}, "geometry": {"type": "Point", "coordinates": [35.7853, 35.6021]}}, {"type": "Feature", "id": "http://data.archaeology.link/data/cigs/ISN", "name": "Isin (ISN)", "dateprops": [], "properties": {}, "geometry": {"type": "Point", "coordinates": [45.2688, 31.8852]}}, {"type": "Feature", "id": "http://data.archaeology.link/data/cigs/TRT", "name": "\u1e6car\u1e6d\u016bs (TRT)", "dateprops": [], "properties": {}, "geometry": {"type": "Point", "coordinates": [35.8865, 34.8958]}}, {"type": "Feature", "id": "http://data.archaeology.link/data/cigs/HAL", "name": "Halicarnassos (HAL)", "dateprops": [], "properties": {}, "geometry": {"type": "Point", "coordinates": [27.4241, 37.0379]}}, {"type": "Feature", "id": "http://data.archaeology.link/data/cigs/ZLB", "name": "Z\u0101l\u016bl \u0100b (ZLB)", "dateprops": [], "properties": {}, "geometry": {"type": "Point", "coordinates": [46.5799, 34.6309]}}, {"type": "Feature", "id": "http://data.archaeology.link/data/cigs/KMN", "name": "Kim\u016bnah (KMN)", "dateprops": [], "properties": {}, "geometry": {"type": "Point", "coordinates": [42.7304, 36.7713]}}, {"type": "Feature", "id": "http://data.archaeology.link/data/cigs/JMM", "name": "\u05ea\u05dc \u05d2\u05de\u05d4 (JMM)", "dateprops": [], "properties": {}, "geometry": {"type": "Point", "coordinates": [34.445, 31.3872]}}, {"type": "Feature", "id": "http://data.archaeology.link/data/cigs/LMA", "name": "\u0644\u0645\u0627 (LMA)", "dateprops": [], "properties": {}, "geometry": {"type": "Point", "coordinates": [51.2172, 31.0449]}}, {"type": "Feature", "id": "http://data.archaeology.link/data/cigs/NJF", "name": "\u0646\u062c\u0641\u200c\u0622\u0628\u0627\u062f (NJF)", "dateprops": [], "properties": {}, "geometry": {"type": "Point", "coordinates": [47.9761, 34.6527]}}, {"type": "Feature", "id": "http://data.archaeology.link/data/cigs/ADH", "name": "Tall Abu al-Dhahab (ADH)", "dateprops": [], "properties": {}, "geometry": {"type": "Point", "coordinates": [46.6926, 30.7382]}}, {"type": "Feature", "id": "http://data.archaeology.link/data/cigs/GRD", "name": "Unknown (GRD)", "dateprops": [], "properties": {}, "geometry": {"type": "Point", "coordinates": [45.9157, 35.7528]}}, {"type": "Feature", "id": "http://data.archaeology.link/data/cigs/OZB", "name": "Ozbaki (OZB)", "dateprops": [], "properties": {}, "geometry": {"type": "Point", "coordinates": [50.5866, 35.9799]}}, {"type": "Feature", "id": "http://data.archaeology.link/data/cigs/GOZ", "name": "Tarsus (GOZ)", "dateprops": [], "properties": {}, "geometry": {"type": "Point", "coordinates": [34.8956, 36.9123]}}, {"type": "Feature", "id": "http://data.archaeology.link/data/cigs/SUH", "name": "Suhairy (SUH)", "dateprops": [], "properties": {}, "geometry": {"type": "Point", "coordinates": [45.5881, 31.4729]}}, {"type": "Feature", "id": "http://data.archaeology.link/data/cigs/HRD", "name": "Haradum (HRD)", "dateprops": [], "properties": {}, "geometry": {"type": "Point", "coordinates": [41.5866, 34.4611]}}, {"type": "Feature", "id": "http://data.archaeology.link/data/cigs/JRO", "name": "\u05d9\u05b0\u05e8\u05b4\u05d9\u05d7\u05d5\u05b9 (JRO)", "dateprops": [], "properties": {}, "geometry": {"type": "Point", "coordinates": [35.4441, 31.871]}}, {"type": "Feature", "id": "http://data.archaeology.link/data/cigs/QCH", "name": "Qarah Jat\u0101n (QCH)", "dateprops": [], "properties": {}, "geometry": {"type": "Point", "coordinates": [45.1914, 35.7417]}}, {"type": "Feature", "id": "http://data.archaeology.link/data/cigs/RSL", "name": "Ursalimmu (RSL)", "dateprops": [], "properties": {}, "geometry": {"type": "Point", "coordinates": [35.2358, 31.7777]}}, {"type": "Feature", "id": "http://data.archaeology.link/data/cigs/HAD", "name": "Tall al-\u1e24ad\u012bd\u012b (HAD)", "dateprops": [], "properties": {}, "geometry": {"type": "Point", "coordinates": [38.1507, 36.2645]}}, {"type": "Feature", "id": "http://data.archaeology.link/data/cigs/LHM", "name": "Tall al-La\u1e25am (LHM)", "dateprops": [], "properties": {}, "geometry": {"type": "Point", "coordinates": [46.3659, 30.774]}}, {"type": "Feature", "id": "http://data.archaeology.link/data/cigs/SIS", "name": "Sh\u012br al-\u1e62an\u0101m (SIS)", "dateprops": [], "properties": {}, "geometry": {"type": "Point", "coordinates": [36.2443, 34.498]}}, {"type": "Feature", "id": "http://data.archaeology.link/data/cigs/APH", "name": "Antipatris (APH)", "dateprops": [], "properties": {}, "geometry": {"type": "Point", "coordinates": [34.9311, 32.1053]}}, {"type": "Feature", "id": "http://data.archaeology.link/data/cigs/EDR", "name": "Edremit (EDR)", "dateprops": [], "properties": {}, "geometry": {"type": "Point", "coordinates": [43.2411, 38.4182]}}, {"type": "Feature", "id": "http://data.archaeology.link/data/cigs/KOC", "name": "Ko\u00e7aklar (KOC)", "dateprops": [], "properties": {}, "geometry": {"type": "Point", "coordinates": [42.7035, 39.231]}}, {"type": "Feature", "id": "http://data.archaeology.link/data/cigs/BOS", "name": "Bostankaya (BOS)", "dateprops": [], "properties": {}, "geometry": {"type": "Point", "coordinates": [42.6557, 39.2028]}}, {"type": "Feature", "id": "http://data.archaeology.link/data/cigs/SEA", "name": "\u05d1\u05b5\u05bc\u05d9\u05ea \u05e9\u05b0\u05c1\u05d0\u05b8\u05df\u200e (SEA)", "dateprops": [], "properties": {}, "geometry": {"type": "Point", "coordinates": [35.503, 32.5046]}}, {"type": "Feature", "id": "http://data.archaeology.link/data/cigs/YAL", "name": "Yal\u00e7\u0131nkaya (YAL)", "dateprops": [], "properties": {}, "geometry": {"type": "Point", "coordinates": [42.8485, 39.1768]}}, {"type": "Feature", "id": "http://data.archaeology.link/data/cigs/PLU", "name": "Palu (PLU)", "dateprops": [], "properties": {}, "geometry": {"type": "Point", "coordinates": [39.9535, 38.7023]}}, {"type": "Feature", "id": "http://data.archaeology.link/data/cigs/TIR", "name": "Tiryntha (TIR)", "dateprops": [], "properties": {}, "geometry": {"type": "Point", "coordinates": [22.8003, 37.5992]}}, {"type": "Feature", "id": "http://data.archaeology.link/data/cigs/RAJ", "name": "Al-Raj\u012bbah (RAJ)", "dateprops": [], "properties": {}, "geometry": {"type": "Point", "coordinates": [45.969, 30.9047]}}, {"type": "Feature", "id": "http://data.archaeology.link/data/cigs/DKA", "name": "Dur-Katlimmu (DKA)", "dateprops": [], "properties": {}, "geometry": {"type": "Point", "coordinates": [40.7436, 35.6463]}}, {"type": "Feature", "id": "http://data.archaeology.link/data/cigs/DON", "name": "Donat\u0131m (DON)", "dateprops": [], "properties": {}, "geometry": {"type": "Point", "coordinates": [41.5317, 38.7187]}}, {"type": "Feature", "id": "http://data.archaeology.link/data/cigs/GDR", "name": "Tall Gha\u1e0daiyr\u012bfah (GDR)", "dateprops": [], "properties": {}, "geometry": {"type": "Point", "coordinates": [44.2649, 34.1818]}}, {"type": "Feature", "id": "http://data.archaeology.link/data/cigs/TVK", "name": "Tsovak (TVK)", "dateprops": [], "properties": {}, "geometry": {"type": "Point", "coordinates": [45.6391, 40.1823]}}, {"type": "Feature", "id": "http://data.archaeology.link/data/cigs/IBA", "name": "Tall Ibr\u0101h\u012bm Bayis (IBA)", "dateprops": [], "properties": {}, "geometry": {"type": "Point", "coordinates": [43.5551, 35.7742]}}, {"type": "Feature", "id": "http://data.archaeology.link/data/cigs/MRM", "name": "Marmachyn (MRM)", "dateprops": [], "properties": {}, "geometry": {"type": "Point", "coordinates": [43.7525, 40.8514]}}, {"type": "Feature", "id": "http://data.archaeology.link/data/cigs/SID", "name": "\u1e62aiyd\u0101 (SID)", "dateprops": [], "properties": {}, "geometry": {"type": "Point", "coordinates": [35.3697, 33.5625]}}, {"type": "Feature", "id": "http://data.archaeology.link/data/cigs/ASS", "name": "Assur (ASS)", "dateprops": [], "properties": {}, "geometry": {"type": "Point", "coordinates": [43.2611, 35.4557]}}, {"type": "Feature", "id": "http://data.archaeology.link/data/cigs/HBR", "name": "\u05ea\u05dc \u05d7\u05d1\u05e8\u05d5\u05df (HBR)", "dateprops": [], "properties": {}, "geometry": {"type": "Point", "coordinates": [35.1023, 31.5245]}}, {"type": "Feature", "id": "http://data.archaeology.link/data/cigs/SUR", "name": "\u0160uruppak (SUR)", "dateprops": [], "properties": {}, "geometry": {"type": "Point", "coordinates": [45.5113, 31.7772]}}, {"type": "Feature", "id": "http://data.archaeology.link/data/cigs/DEP", "name": "Dura-Europos (DEP)", "dateprops": [], "properties": {}, "geometry": {"type": "Point", "coordinates": [40.7298, 34.7479]}}, {"type": "Feature", "id": "http://data.archaeology.link/data/cigs/BIN", "name": "Bing\u00f6l Da\u011f (BIN)", "dateprops": [], "properties": {}, "geometry": {"type": "Point", "coordinates": [41.3873, 39.3101]}}, {"type": "Feature", "id": "http://data.archaeology.link/data/cigs/HLF", "name": "Guzana (HLF)", "dateprops": [], "properties": {}, "geometry": {"type": "Point", "coordinates": [40.0399, 36.8268]}}, {"type": "Feature", "id": "http://data.archaeology.link/data/cigs/SZE", "name": "\u0160ubat-Enlil (SZE)", "dateprops": [], "properties": {}, "geometry": {"type": "Point", "coordinates": [41.5069, 36.9579]}}, {"type": "Feature", "id": "http://data.archaeology.link/data/cigs/TVI", "name": "\u062a\u0646\u06af\u064a \u0648\u0631\u200e (TVI)", "dateprops": [], "properties": {}, "geometry": {"type": "Point", "coordinates": [46.6182, 34.9961]}}, {"type": "Feature", "id": "http://data.archaeology.link/data/cigs/KBL", "name": "\u0686\u0645\u0646 \u062d\u0636\u0648\u0631\u06cc (KBL)", "dateprops": [], "properties": {}, "geometry": {"type": "Point", "coordinates": [69.1954, 34.5153]}}, {"type": "Feature", "id": "http://data.archaeology.link/data/cigs/RAZ", "name": "\u0631\u0627\u0632\u0644\u06cc\u0642 (RAZ)", "dateprops": [], "properties": {}, "geometry": {"type": "Point", "coordinates": [47.5496, 38.0066]}}, {"type": "Feature", "id": "http://data.archaeology.link/data/cigs/KSH", "name": "Ki\u0161 (KSH)", "dateprops": [], "properties": {}, "geometry": {"type": "Point", "coordinates": [44.5949, 32.5455]}}, {"type": "Feature", "id": "http://data.archaeology.link/data/cigs/TAR", "name": "Yal\u0131nd\u00fcz (TAR)", "dateprops": [], "properties": {}, "geometry": {"type": "Point", "coordinates": [43.7195, 38.9476]}}, {"type": "Feature", "id": "http://data.archaeology.link/data/cigs/SJQ", "name": "K\u016by S\u012bnj\u0101q (SJQ)", "dateprops": [], "properties": {},